g_app_elapsed_time,g_system_state,g_target_too_close,g_target_valid,g_target_detection_id,g_target_track_id,g_target_cntr_offset_x,g_target_cntr_offset_y,g_target_height,g_target_width,g_target_aspect,g_target_left,g_target_right,g_target_top,g_target_bottom,d_target_h,d_target_w,g_x_target,g_y_target,g_z_target,d_target,g_x_error,g_y_error,g_delta_angle,g_camera_tilt_angle,g_delta_d_x,g_delta_d_z,g_vx_adjust,g_vy_adjust,g_vz_adjust,g_mav_veh_sys_stat_voltage_battery,g_mav_veh_sys_stat_current_battery,g_mav_veh_sys_stat_battery_remaining,g_mav_veh_rel_alt,g_mav_veh_gps_vx,g_mav_veh_gps_vy,g_mav_veh_gps_vz,g_mav_veh_gps_hdg,g_mav_veh_roll,g_mav_veh_pitch,g_mav_veh_yaw,g_mav_veh_rollspeed,g_mav_veh_pitchspeed,g_mav_veh_yawspeed,g_mav_veh_imu_ax,g_mav_veh_imu_ay,g_mav_veh_imu_az,g_mav_veh_imu_xgyro,g_mav_veh_imu_ygyro,g_mav_veh_imu_zgyro,g_mav_veh_rngfdr_current_distance,g_mav_veh_rngfdr_signal_quality,g_mav_veh_flow_comp_m_x,g_mav_veh_flow_comp_m_y,g_mav_veh_flow_x,g_mav_veh_flow_y,g_mav_veh_flow_quality,g_mav_veh_flow_rate_x,g_mav_veh_flow_rate_y,g_mav_veh_local_ned_x,g_mav_veh_local_ned_y,g_mav_veh_local_ned_z,g_mav_veh_local_ned_vx,g_mav_veh_local_ned_vy,g_mav_veh_local_ned_vz,g_mav_veh_q1_actual,g_mav_veh_q2_actual,g_mav_veh_q3_actual,g_mav_veh_q4_actual,g_mav_veh_roll_rate_actual,g_mav_veh_pitch_rate_actual,g_mav_veh_yaw_rate_actual,g_mav_veh_repr_offset_q[0],g_mav_veh_repr_offset_q[1],g_mav_veh_repr_offset_q[2],g_mav_veh_repr_offset_q[3],g_mav_veh_type,g_mav_veh_autopilot_type,g_mav_veh_base_mode, g_mav_veh_custom_mode,g_mav_veh_state,g_mav_veh_mavlink_version
0.000000,0,0,0,-1,0,0.000000,0.000000,0.000000,0.000000,0.000000,0.000000,0.000000,0.000000,0.000000,0.000000,0.000000,0.000000,0.000000,0.000000,0.000000,0.000000,0.000000,0.000000,0.000000,0.000000,0.000000,0.000000,0.000000,0.000000,0,0,0,0,0,0,0,0,0.000000,0.000000,0.000000,0.000000,0.000000,0.000000,0,0,0,0,0,0,0,0,0.000000,0.000000,0,0,0,0.000000,0.000000,0.000000,0.000000,0.000000,0.000000,0.000000,0.000000,0.000000,0.000000,0.000000,0.000000,0.000000,0.000000,0.000000,0.000000,0.000000,0.000000,0.000000,0,0,0,0,0,0
0.000000,1,0,0,-1,0,0.000000,0.000000,0.000000,0.000000,0.000000,0.000000,0.000000,0.000000,0.000000,0.000000,0.000000,0.000000,0.000000,0.000000,0.000000,0.000000,0.000000,0.000000,0.000000,0.000000,0.000000,0.000000,0.000000,0.000000,0,0,0,1063,0,-6,-1,25568,-0.116451,-0.053411,-1.820795,-0.000029,-0.000146,-0.001123,-42,102,-1000,6,0,1,0,0,-0.000710,-0.000490,0,0,255,0.000000,0.000000,-12.143762,-13.065798,2.546676,0.002364,-0.068631,-0.019339,0.000000,0.000000,0.000000,0.000000,0.000000,0.000000,0.000000,0.000000,0.000000,0.000000,0.000000,2,3,89,5,3,3
0.151000,1,0,0,-1,0,0.000000,0.000000,0.000000,0.000000,0.000000,0.000000,0.000000,0.000000,0.000000,0.000000,0.000000,0.000000,0.000000,0.000000,0.000000,0.000000,0.000000,0.000000,0.000000,0.000000,0.000000,0.000000,0.000000,0.000000,0,0,0,1063,0,-6,-1,25568,-0.116463,-0.053420,-1.820820,-0.001054,-0.000786,-0.000783,-42,101,-1000,5,0,0,0,0,-0.194082,0.000021,0,0,255,-0.193854,0.000000,-12.144284,-13.071147,2.545538,0.001934,-0.068394,-0.019794,-0.611385,0.056749,-0.029597,0.788741,-0.000266,-0.000931,-0.001693,0.000000,0.000000,0.000000,0.000000,2,3,89,5,3,3
0.182000,1,0,0,-1,0,0.000000,0.000000,0.000000,0.000000,0.000000,0.000000,0.000000,0.000000,0.000000,0.000000,0.000000,0.000000,0.000000,0.000000,0.000000,0.000000,0.000000,0.000000,0.000000,0.000000,0.000000,0.000000,0.000000,0.000000,11946,8959,0,1064,0,-6,-1,25568,-0.116463,-0.053420,-1.820820,-0.001054,-0.000786,-0.000783,-42,102,-1000,4,-1,0,0,0,-0.336854,-0.168622,0,0,255,-0.336874,-0.168437,-12.144460,-13.072352,2.545308,0.001762,-0.068436,-0.019858,-0.611385,0.056749,-0.029597,0.788741,-0.000266,-0.000931,-0.001693,0.000000,0.000000,0.000000,0.000000,2,3,89,5,3,3
0.215000,2,0,0,-1,0,0.000000,0.000000,0.000000,0.000000,0.000000,0.000000,0.000000,0.000000,0.000000,0.000000,0.000000,0.000000,0.000000,0.000000,0.000000,0.000000,0.000000,0.000000,0.000000,0.000000,0.000000,0.000000,0.000000,0.000000,11946,8959,0,1065,0,-6,-2,25568,-0.116463,-0.053452,-1.820870,0.000239,-0.000001,-0.000994,-42,102,-1000,5,0,0,0,0,-0.000592,0.000800,0,0,255,0.000000,0.000000,-12.144769,-13.075470,2.544619,0.001601,-0.068485,-0.020050,-0.611385,0.056749,-0.029597,0.788741,-0.000266,-0.000931,-0.001693,0.000000,0.000000,0.000000,0.000000,2,3,89,4,3,3
0.248000,3,0,0,-1,0,0.000000,0.000000,0.000000,0.000000,0.000000,0.000000,0.000000,0.000000,0.000000,0.000000,0.000000,0.000000,0.000000,0.000000,0.000000,0.000000,0.000000,0.000000,0.000000,0.000000,0.000000,0.000000,0.000000,0.000000,11946,8959,0,1066,0,-6,-2,25568,-0.116463,-0.053454,-1.820880,0.000103,-0.000084,-0.000159,-42,102,-1000,5,0,1,0,0,-0.000051,0.000353,0,0,255,0.000000,0.000000,-12.145171,-13.080439,2.543438,0.001516,-0.068268,-0.020432,-0.611385,0.056749,-0.029597,0.788741,-0.000266,-0.000931,-0.001693,0.000000,0.000000,0.000000,0.000000,2,3,89,4,3,3
0.283000,3,0,0,-1,0,0.000000,0.000000,0.000000,0.000000,0.000000,0.000000,0.000000,0.000000,0.000000,0.000000,0.000000,0.000000,0.000000,0.000000,0.000000,0.000000,0.000000,0.000000,0.000000,0.000000,0.000000,0.000000,0.000000,0.000000,11946,8959,0,1067,0,-6,-2,25568,-0.116479,-0.053430,-1.820904,0.000387,0.001689,-0.000685,-42,102,-1000,5,0,1,0,0,0.000055,-0.000788,0,0,255,0.000000,0.000000,-12.145418,-13.083231,2.542765,0.001365,-0.068085,-0.020761,-0.611385,0.056749,-0.029597,0.788741,-0.000266,-0.000931,-0.001693,0.000000,0.000000,0.000000,0.000000,2,3,89,4,3,3
0.317000,3,0,0,-1,0,0.000000,0.000000,0.000000,0.000000,0.000000,0.000000,0.000000,0.000000,0.000000,0.000000,0.000000,0.000000,0.000000,0.000000,0.000000,0.000000,0.000000,0.000000,0.000000,0.000000,0.000000,0.000000,0.000000,0.000000,11946,8959,0,1067,0,-6,-2,25567,-0.116478,-0.053432,-1.820924,-0.000954,-0.000111,-0.000227,-42,102,-1000,5,1,0,0,0,0.000279,-0.001054,0,0,255,0.000000,0.000000,-12.145578,-13.086470,2.542206,0.001266,-0.068086,-0.020966,-0.611385,0.056749,-0.029597,0.788741,-0.000266,-0.000931,-0.001693,0.000000,0.000000,0.000000,0.000000,2,3,89,4,3,3
0.351000,3,0,0,-1,0,0.000000,0.000000,0.000000,0.000000,0.000000,0.000000,0.000000,0.000000,0.000000,0.000000,0.000000,0.000000,0.000000,0.000000,0.000000,0.000000,0.000000,0.000000,0.000000,0.000000,0.000000,0.000000,0.000000,0.000000,11946,8959,0,8,0,-6,-2,25567,-0.116472,-0.053415,-1.820936,0.000681,0.001300,-0.000463,-42,102,-1000,6,0,1,0,0,0.167994,-0.001464,0,0,255,0.168760,0.000000,-12.145735,-13.092672,2.541536,0.001229,-0.068143,-0.021237,-0.611385,0.056749,-0.029597,0.788741,-0.000266,-0.000931,-0.001693,0.000000,0.000000,0.000000,0.000000,2,3,89,4,3,3
0.385000,3,0,0,-1,0,0.000000,0.000000,0.000000,0.000000,0.000000,0.000000,0.000000,0.000000,0.000000,0.000000,0.000000,0.000000,0.000000,0.000000,0.000000,0.000000,0.000000,0.000000,0.000000,0.000000,0.000000,0.000000,0.000000,0.000000,11946,8959,0,9,0,-6,-2,25567,-0.116467,-0.053388,-1.820952,-0.000039,0.000667,-0.001155,-42,102,-1000,5,0,0,0,0,-0.000785,-0.001883,0,0,255,0.000000,0.000000,-12.145794,-13.098196,2.540584,0.001242,-0.068010,-0.021457,-0.611385,0.056749,-0.029597,0.788741,-0.000266,-0.000931,-0.001693,0.000000,0.000000,0.000000,0.000000,2,3,89,4,3,3
0.418000,3,0,0,-1,0,0.000000,0.000000,0.000000,0.000000,0.000000,0.000000,0.000000,0.000000,0.000000,0.000000,0.000000,0.000000,0.000000,0.000000,0.000000,0.000000,0.000000,0.000000,0.000000,0.000000,0.000000,0.000000,0.000000,0.000000,11946,8959,0,10,0,-6,-2,25567,-0.116487,-0.053381,-1.820966,-0.001141,-0.000965,0.000240,-42,102,-1000,4,-1,1,0,0,0.000632,-0.000141,0,0,255,0.000000,0.000000,-12.145829,-13.101124,2.540122,0.001156,-0.067886,-0.021564,-0.611385,0.056749,-0.029597,0.788741,-0.000266,-0.000931,-0.001693,0.000000,0.000000,0.000000,0.000000,2,3,89,4,3,3
0.453000,3,0,0,-1,0,0.000000,0.000000,0.000000,0.000000,0.000000,0.000000,0.000000,0.000000,0.000000,0.000000,0.000000,0.000000,0.000000,0.000000,0.000000,0.000000,0.000000,0.000000,0.000000,0.000000,0.000000,0.000000,0.000000,0.000000,11946,8959,0,10,0,-6,-2,25567,-0.116493,-0.053377,-1.820964,-0.000290,0.000071,-0.000200,-42,102,-1000,5,0,1,0,0,0.000548,-0.000566,0,0,255,0.000000,0.000000,-12.145863,-13.106916,2.539076,0.001217,-0.067781,-0.021822,-0.611385,0.056749,-0.029597,0.788741,-0.000266,-0.000931,-0.001693,0.000000,0.000000,0.000000,0.000000,2,3,89,4,3,3
0.486000,3,0,0,-1,0,0.000000,0.000000,0.000000,0.000000,0.000000,0.000000,0.000000,0.000000,0.000000,0.000000,0.000000,0.000000,0.000000,0.000000,0.000000,0.000000,0.000000,0.000000,0.000000,0.000000,0.000000,0.000000,0.000000,0.000000,11946,8959,0,11,0,-6,-2,25567,-0.116503,-0.053382,-1.820959,0.000368,-0.000216,-0.000364,-42,102,-1001,4,0,1,0,0,0.001039,-0.000031,0,0,255,0.000000,0.000000,-12.145761,-13.110230,2.538791,0.001233,-0.067878,-0.021963,-0.611385,0.056749,-0.029597,0.788741,-0.000266,-0.000931,-0.001693,0.000000,0.000000,0.000000,0.000000,2,3,89,4,3,3
0.520000,3,0,0,-1,0,0.000000,0.000000,0.000000,0.000000,0.000000,0.000000,0.000000,0.000000,0.000000,0.000000,0.000000,0.000000,0.000000,0.000000,0.000000,0.000000,0.000000,0.000000,0.000000,0.000000,0.000000,0.000000,0.000000,0.000000,11946,8959,0,11,0,-6,-2,25567,-0.116477,-0.053378,-1.820978,0.000521,0.000618,-0.000692,-42,102,-1000,6,0,0,0,0,-0.000480,0.000160,0,0,255,0.000000,0.000000,-12.145546,-13.114651,2.538504,0.001414,-0.068057,-0.021993,-0.611385,0.056749,-0.029597,0.788741,-0.000266,-0.000931,-0.001693,0.000000,0.000000,0.000000,0.000000,2,3,89,4,3,3
0.555000,3,0,0,-1,0,0.000000,0.000000,0.000000,0.000000,0.000000,0.000000,0.000000,0.000000,0.000000,0.000000,0.000000,0.000000,0.000000,0.000000,0.000000,0.000000,0.000000,0.000000,0.000000,0.000000,0.000000,0.000000,0.000000,0.000000,11946,8959,0,11,0,-6,-2,25567,-0.116468,-0.053391,-1.821007,-0.000029,0.000537,-0.001406,-42,102,-1000,5,0,0,0,0,0.176428,-0.000296,0,0,255,0.176530,0.000000,-12.145039,-13.123234,2.538156,0.001897,-0.068723,-0.021989,-0.611385,0.056749,-0.029597,0.788741,-0.000266,-0.000931,-0.001693,0.000000,0.000000,0.000000,0.000000,2,3,89,4,3,3
0.588000,3,0,0,-1,0,0.000000,0.000000,0.000000,0.000000,0.000000,0.000000,0.000000,0.000000,0.000000,0.000000,0.000000,0.000000,0.000000,0.000000,0.000000,0.000000,0.000000,0.000000,0.000000,0.000000,0.000000,0.000000,0.000000,0.000000,11946,8959,0,12,0,-6,-2,25567,-0.116464,-0.053436,-1.821034,-0.000713,-0.001719,-0.000637,-42,102,-1000,5,0,0,0,0,0.163394,-0.000220,0,0,255,0.163038,0.000000,-12.144915,-13.125628,2.537808,0.002015,-0.068710,-0.021987,-0.611385,0.056749,-0.029597,0.788741,-0.000266,-0.000931,-0.001693,0.000000,0.000000,0.000000,0.000000,2,3,89,4,3,3
0.621000,3,0,0,-1,0,0.000000,0.000000,0.000000,0.000000,0.000000,0.000000,0.000000,0.000000,0.000000,0.000000,0.000000,0.000000,0.000000,0.000000,0.000000,0.000000,0.000000,0.000000,0.000000,0.000000,0.000000,0.000000,0.000000,0.000000,11946,8959,0,12,0,-6,-2,25567,-0.116450,-0.053444,-1.821048,0.000961,0.000086,-0.000503,-42,102,-1000,6,0,1,0,0,-0.000989,-0.000501,0,0,255,0.000000,0.000000,-12.144613,-13.130054,2.537542,0.002207,-0.068970,-0.021976,-0.611385,0.056749,-0.029597,0.788741,-0.000266,-0.000931,-0.001693,0.000000,0.000000,0.000000,0.000000,2,3,89,4,3,3
0.657000,3,0,0,-1,0,0.000000,0.000000,0.000000,0.000000,0.000000,0.000000,0.000000,0.000000,0.000000,0.000000,0.000000,0.000000,0.000000,0.000000,0.000000,0.000000,0.000000,0.000000,0.000000,0.000000,0.000000,0.000000,0.000000,0.000000,11946,8959,0,13,0,-6,-2,25567,-0.116455,-0.053456,-1.821063,-0.000028,-0.000217,-0.000782,-42,102,-1000,5,0,0,0,0,0.000651,0.000056,0,0,255,0.000000,0.000000,-12.144189,-13.136226,2.536874,0.002621,-0.069190,-0.022203,-0.611385,0.056749,-0.029597,0.788741,-0.000266,-0.000931,-0.001693,0.000000,0.000000,0.000000,0.000000,2,3,89,4,3,3
0.691000,3,0,0,-1,0,0.000000,0.000000,0.000000,0.000000,0.000000,0.000000,0.000000,0.000000,0.000000,0.000000,0.000000,0.000000,0.000000,0.000000,0.000000,0.000000,0.000000,0.000000,0.000000,0.000000,0.000000,0.000000,0.000000,0.000000,11946,8959,0,14,0,-6,-2,25566,-0.116440,-0.053436,-1.821092,0.000771,-0.000136,-0.000672,-42,102,-1000,6,0,0,0,0,-0.114810,-0.116572,0,0,255,-0.115176,-0.115176,-12.143948,-13.138906,2.536368,0.002760,-0.069218,-0.022322,-0.611385,0.056749,-0.029597,0.788741,-0.000266,-0.000931,-0.001693,0.000000,0.000000,0.000000,0.000000,2,3,89,4,3,3
0.726000,3,0,0,-1,0,0.000000,0.000000,0.000000,0.000000,0.000000,0.000000,0.000000,0.000000,0.000000,0.000000,0.000000,0.000000,0.000000,0.000000,0.000000,0.000000,0.000000,0.000000,0.000000,0.000000,0.000000,0.000000,0.000000,0.000000,11946,8959,0,14,0,-6,-2,25566,-0.116438,-0.053448,-1.821105,0.000296,-0.000200,-0.000798,-42,102,-1000,5,0,0,0,0,-0.000070,0.000706,0,0,255,0.000000,0.000000,-12.142945,-13.147707,2.535075,0.003365,-0.069571,-0.022662,-0.611385,0.056749,-0.029597,0.788741,-0.000266,-0.000931,-0.001693,0.000000,0.000000,0.000000,0.000000,2,3,89,4,3,3
0.760000,3,0,0,-1,0,0.000000,0.000000,0.000000,0.000000,0.000000,0.000000,0.000000,0.000000,0.000000,0.000000,0.000000,0.000000,0.000000,0.000000,0.000000,0.000000,0.000000,0.000000,0.000000,0.000000,0.000000,0.000000,0.000000,0.000000,11946,8959,0,15,0,-6,-2,25566,-0.116421,-0.053447,-1.821108,0.001055,-0.000486,-0.000143,-42,102,-1000,6,0,1,0,0,-0.000123,-0.000755,0,0,255,0.000000,0.000000,-12.142553,-13.151142,2.534469,0.003551,-0.069706,-0.022788,-0.611385,0.056749,-0.029597,0.788741,-0.000266,-0.000931,-0.001693,0.000000,0.000000,0.000000,0.000000,2,3,89,4,3,3
0.794000,3,0,0,-1,0,0.000000,0.000000,0.000000,0.000000,0.000000,0.000000,0.000000,0.000000,0.000000,0.000000,0.000000,0.000000,0.000000,0.000000,0.000000,0.000000,0.000000,0.000000,0.000000,0.000000,0.000000,0.000000,0.000000,0.000000,11946,8959,0,16,0,-6,-2,25566,-0.116407,-0.053434,-1.821121,-0.000191,-0.000465,-0.000324,-42,102,-1000,5,0,1,0,0,-0.000143,-0.000882,0,0,255,0.000000,0.000000,-12.142322,-13.153522,2.533927,0.003740,-0.069635,-0.023000,-0.611385,0.056749,-0.029597,0.788741,-0.000266,-0.000931,-0.001693,0.000000,0.000000,0.000000,0.000000,2,3,89,4,3,3
0.828000,3,0,0,-1,0,0.000000,0.000000,0.000000,0.000000,0.000000,0.000000,0.000000,0.000000,0.000000,0.000000,0.000000,0.000000,0.000000,0.000000,0.000000,0.000000,0.000000,0.000000,0.000000,0.000000,0.000000,0.000000,0.000000,0.000000,11946,8959,0,17,0,-6,-2,25566,-0.116393,-0.053438,-1.821132,0.000942,0.001309,-0.001177,-42,102,-1000,6,0,0,0,0,-0.000753,-0.000456,0,0,255,0.000000,0.000000,-12.141413,-13.160715,2.532577,0.004317,-0.069621,-0.023301,-0.611385,0.056749,-0.029597,0.788741,-0.000266,-0.000931,-0.001693,0.000000,0.000000,0.000000,0.000000,2,3,89,4,3,3
0.862000,3,0,0,-1,0,0.000000,0.000000,0.000000,0.000000,0.000000,0.000000,0.000000,0.000000,0.000000,0.000000,0.000000,0.000000,0.000000,0.000000,0.000000,0.000000,0.000000,0.000000,0.000000,0.000000,0.000000,0.000000,0.000000,0.000000,11946,8959,0,17,0,-6,-2,25566,-0.116402,-0.053448,-1.821137,-0.000048,-0.000549,-0.000652,-42,102,-1000,5,0,0,0,0,0.000644,0.000607,0,0,255,0.000000,0.000000,-12.141046,-13.163623,2.531935,0.004611,-0.069464,-0.023295,-0.611385,0.056749,-0.029597,0.788741,-0.000266,-0.000931,-0.001693,0.000000,0.000000,0.000000,0.000000,2,3,89,4,3,3
0.896000,3,0,0,-1,0,0.000000,0.000000,0.000000,0.000000,0.000000,0.000000,0.000000,0.000000,0.000000,0.000000,0.000000,0.000000,0.000000,0.000000,0.000000,0.000000,0.000000,0.000000,0.000000,0.000000,0.000000,0.000000,0.000000,0.000000,11946,8959,0,18,0,-6,-2,25566,-0.116430,-0.053427,-1.821115,-0.000957,-0.001141,-0.000242,-42,102,-1000,4,-1,1,0,0,0.159235,-0.001247,0,0,255,0.159305,0.000000,-12.140717,-13.166762,2.531478,0.004619,-0.069150,-0.023410,-0.611385,0.056749,-0.029597,0.788741,-0.000266,-0.000931,-0.001693,0.000000,0.000000,0.000000,0.000000,2,3,89,4,3,3
0.930000,3,0,0,-1,0,0.000000,0.000000,0.000000,0.000000,0.000000,0.000000,0.000000,0.000000,0.000000,0.000000,0.000000,0.000000,0.000000,0.000000,0.000000,0.000000,0.000000,0.000000,0.000000,0.000000,0.000000,0.000000,0.000000,0.000000,11946,8959,0,19,0,-6,-2,25566,-0.116435,-0.053395,-1.821116,0.000354,0.000714,-0.000314,-42,102,-1001,5,0,1,0,0,0.000297,-0.000074,0,0,255,0.000000,0.000000,-12.140063,-13.172943,2.530401,0.004945,-0.068487,-0.023809,-0.611385,0.056749,-0.029597,0.788741,-0.000266,-0.000931,-0.001693,0.000000,0.000000,0.000000,0.000000,2,3,89,4,3,3
0.964000,3,0,0,-1,0,0.000000,0.000000,0.000000,0.000000,0.000000,0.000000,0.000000,0.000000,0.000000,0.000000,0.000000,0.000000,0.000000,0.000000,0.000000,0.000000,0.000000,0.000000,0.000000,0.000000,0.000000,0.000000,0.000000,0.000000,11946,8959,0,20,0,-6,-2,25566,-0.116439,-0.053357,-1.821126,-0.000075,0.000513,-0.000694,-42,102,-1000,5,0,0,0,0,-0.000370,-0.000321,0,0,255,0.000000,0.000000,-12.139742,-13.175872,2.529807,0.005114,-0.068057,-0.023921,-0.611385,0.056749,-0.029597,0.788741,-0.000266,-0.000931,-0.001693,0.000000,0.000000,0.000000,0.000000,2,3,89,4,3,3
0.998000,3,0,0,-1,0,0.000000,0.000000,0.000000,0.000000,0.000000,0.000000,0.000000,0.000000,0.000000,0.000000,0.000000,0.000000,0.000000,0.000000,0.000000,0.000000,0.000000,0.000000,0.000000,0.000000,0.000000,0.000000,0.000000,0.000000,11946,8959,0,21,0,-6,-2,25566,-0.116442,-0.053328,-1.821127,0.000042,0.001199,0.000158,-42,102,-1000,5,0,1,0,0,-0.000831,-0.001118,0,0,255,0.000000,0.000000,-12.139434,-13.178588,2.529230,0.005179,-0.067623,-0.024105,-0.611385,0.056749,-0.029597,0.788741,-0.000266,-0.000931,-0.001693,0.000000,0.000000,0.000000,0.000000,2,3,89,4,3,3
1.031000,3,0,0,-1,0,0.000000,0.000000,0.000000,0.000000,0.000000,0.000000,0.000000,0.000000,0.000000,0.000000,0.000000,0.000000,0.000000,0.000000,0.000000,0.000000,0.000000,0.000000,0.000000,0.000000,0.000000,0.000000,0.000000,0.000000,11946,8959,0,21,0,-6,-2,25566,-0.116454,-0.053323,-1.821131,-0.000099,-0.000379,-0.000146,-42,102,-1000,5,0,1,0,0,0.000099,0.000379,0,0,255,0.000000,0.000000,-12.138838,-13.183721,2.528042,0.005290,-0.066885,-0.024231,-0.611385,0.056749,-0.029597,0.788741,-0.000266,-0.000931,-0.001693,0.000000,0.000000,0.000000,0.000000,2,3,89,4,3,3
1.065000,3,0,0,-1,0,0.000000,0.000000,0.000000,0.000000,0.000000,0.000000,0.000000,0.000000,0.000000,0.000000,0.000000,0.000000,0.000000,0.000000,0.000000,0.000000,0.000000,0.000000,0.000000,0.000000,0.000000,0.000000,0.000000,0.000000,11946,8959,0,22,0,-6,-2,25566,-0.116497,-0.053294,-1.821134,-0.000585,-0.000055,-0.000466,-42,102,-1000,4,0,0,0,0,0.001812,-0.000230,0,0,255,0.000000,0.000000,-12.138552,-13.186089,2.527466,0.005345,-0.066464,-0.024344,-0.611385,0.056749,-0.029597,0.788741,-0.000266,-0.000931,-0.001693,0.000000,0.000000,0.000000,0.000000,2,3,89,4,3,3
1.098000,3,0,0,-1,0,0.000000,0.000000,0.000000,0.000000,0.000000,0.000000,0.000000,0.000000,0.000000,0.000000,0.000000,0.000000,0.000000,0.000000,0.000000,0.000000,0.000000,0.000000,0.000000,0.000000,0.000000,0.000000,0.000000,0.000000,11946,8959,0,22,0,-6,-2,25566,-0.116482,-0.053266,-1.821137,0.000548,0.000288,-0.000166,-42,101,-1000,6,0,1,0,0,-0.000401,-0.000230,0,0,255,0.000000,0.000000,-12.137815,-13.188937,2.527085,0.005573,-0.066075,-0.024294,-0.611385,0.056749,-0.029597,0.788741,-0.000266,-0.000931,-0.001693,0.000000,0.000000,0.000000,0.000000,2,3,217,4,3,3
1.132000,3,0,0,-1,0,0.000000,0.000000,0.000000,0.000000,0.000000,0.000000,0.000000,0.000000,0.000000,0.000000,0.000000,0.000000,0.000000,0.000000,0.000000,0.000000,0.000000,0.000000,0.000000,0.000000,0.000000,0.000000,0.000000,0.000000,11946,8959,0,23,0,-6,-2,25566,-0.116478,-0.053261,-1.821138,-0.000323,0.000736,-0.000358,-42,102,-1000,5,0,1,0,0,0.000386,0.000005,0,0,236,0.000000,0.000000,-12.135589,-13.195051,2.526735,0.006790,-0.065335,-0.024256,-0.611385,0.056749,-0.029597,0.788741,-0.000266,-0.000931,-0.001693,0.000000,0.000000,0.000000,0.000000,2,3,217,4,3,3
1.165000,3,0,0,-1,0,0.000000,0.000000,0.000000,0.000000,0.000000,0.000000,0.000000,0.000000,0.000000,0.000000,0.000000,0.000000,0.000000,0.000000,0.000000,0.000000,0.000000,0.000000,0.000000,0.000000,0.000000,0.000000,0.000000,0.000000,11946,8959,0,23,0,-6,-2,25566,-0.116437,-0.053212,-1.821147,-0.000536,0.000299,-0.000476,-42,102,-1000,5,0,1,0,0,-0.187199,-0.188591,0,0,255,-0.188598,-0.188598,-12.134548,-13.197877,2.526504,0.007335,-0.065009,-0.024141,-0.611385,0.056749,-0.029597,0.788741,-0.000266,-0.000931,-0.001693,0.000000,0.000000,0.000000,0.000000,2,3,217,4,3,3
1.198000,3,0,0,-1,0,0.000000,0.000000,0.000000,0.000000,0.000000,0.000000,0.000000,0.000000,0.000000,0.000000,0.000000,0.000000,0.000000,0.000000,0.000000,0.000000,0.000000,0.000000,0.000000,0.000000,0.000000,0.000000,0.000000,0.000000,11946,8959,0,23,0,-6,-2,25566,-0.116400,-0.053175,-1.821159,0.000256,0.000697,-0.000623,-42,102,-1000,5,0,0,0,0,-0.000628,0.178870,0,0,255,0.000000,0.180272,-12.133540,-13.200630,2.526224,0.007875,-0.064536,-0.024098,-0.611385,0.056749,-0.029597,0.788741,-0.000266,-0.000931,-0.001693,0.000000,0.000000,0.000000,0.000000,2,3,217,4,3,3
1.232000,3,0,0,-1,0,0.000000,0.000000,0.000000,0.000000,0.000000,0.000000,0.000000,0.000000,0.000000,0.000000,0.000000,0.000000,0.000000,0.000000,0.000000,0.000000,0.000000,0.000000,0.000000,0.000000,0.000000,0.000000,0.000000,0.000000,11946,8959,0,24,0,-6,-2,25566,-0.116378,-0.053175,-1.821164,-0.000087,-0.000488,-0.000194,-42,102,-1000,5,0,1,0,0,0.176161,0.001042,0,0,255,0.176247,0.000000,-12.131648,-13.205644,2.525634,0.008937,-0.063953,-0.024220,-0.611385,0.056749,-0.029597,0.788741,-0.000266,-0.000931,-0.001693,0.000000,0.000000,0.000000,0.000000,2,3,217,4,3,3
1.265000,3,0,0,-1,0,0.000000,0.000000,0.000000,0.000000,0.000000,0.000000,0.000000,0.000000,0.000000,0.000000,0.000000,0.000000,0.000000,0.000000,0.000000,0.000000,0.000000,0.000000,0.000000,0.000000,0.000000,0.000000,0.000000,0.000000,11946,8959,0,24,0,-6,-2,25566,-0.116352,-0.053164,-1.821191,-0.002185,-0.000665,0.000086,-42,102,-1000,6,0,0,0,0,-0.172561,-0.172086,0,0,255,-0.171657,-0.171657,-12.130756,-13.207986,2.525290,0.009231,-0.063562,-0.024259,-0.611385,0.056749,-0.029597,0.788741,-0.000266,-0.000931,-0.001693,0.000000,0.000000,0.000000,0.000000,2,3,217,4,3,3
1.298000,3,0,0,-1,0,0.000000,0.000000,0.000000,0.000000,0.000000,0.000000,0.000000,0.000000,0.000000,0.000000,0.000000,0.000000,0.000000,0.000000,0.000000,0.000000,0.000000,0.000000,0.000000,0.000000,0.000000,0.000000,0.000000,0.000000,11946,8959,0,25,1,-6,-2,25566,-0.116331,-0.053156,-1.821199,-0.000076,0.000437,-0.000667,-42,102,-1000,5,0,0,0,0,0.000127,-0.000433,0,0,255,0.000000,0.000000,-12.129887,-13.210294,2.524900,0.009737,-0.063200,-0.024383,-0.611385,0.056749,-0.029597,0.788741,-0.000266,-0.000931,-0.001693,0.000000,0.000000,0.000000,0.000000,2,3,217,4,3,3
1.332000,3,0,0,-1,0,0.000000,0.000000,0.000000,0.000000,0.000000,0.000000,0.000000,0.000000,0.000000,0.000000,0.000000,0.000000,0.000000,0.000000,0.000000,0.000000,0.000000,0.000000,0.000000,0.000000,0.000000,0.000000,0.000000,0.000000,11946,8959,0,26,1,-6,-2,25566,-0.116313,-0.053170,-1.821200,-0.000281,0.000843,-0.000528,-42,102,-1000,5,0,1,0,0,0.193364,-0.000576,0,0,255,0.193555,0.000000,-12.126800,-13.217713,2.523260,0.011419,-0.063559,-0.024860,-0.611385,0.056749,-0.029597,0.788741,-0.000266,-0.000931,-0.001693,0.000000,0.000000,0.000000,0.000000,2,3,217,4,3,3
1.365000,3,0,0,-1,0,0.000000,0.000000,0.000000,0.000000,0.000000,0.000000,0.000000,0.000000,0.000000,0.000000,0.000000,0.000000,0.000000,0.000000,0.000000,0.000000,0.000000,0.000000,0.000000,0.000000,0.000000,0.000000,0.000000,0.000000,11946,8959,0,28,1,-6,-2,25566,-0.116260,-0.053192,-1.821244,-0.000484,-0.000134,-0.001047,-42,102,-1001,5,0,0,0,0,-0.000139,-0.000502,0,0,255,0.000000,0.000000,-12.125390,-13.220961,2.522521,0.012173,-0.063775,-0.025083,-0.611385,0.056749,-0.029597,0.788741,-0.000266,-0.000931,-0.001693,0.000000,0.000000,0.000000,0.000000,2,3,217,4,3,3
1.398000,3,0,0,-1,0,0.000000,0.000000,0.000000,0.000000,0.000000,0.000000,0.000000,0.000000,0.000000,0.000000,0.000000,0.000000,0.000000,0.000000,0.000000,0.000000,0.000000,0.000000,0.000000,0.000000,0.000000,0.000000,0.000000,0.000000,11946,8959,0,28,1,-6,-2,25565,-0.116243,-0.053199,-1.821253,0.001062,0.001100,-0.001105,-42,102,-1000,6,0,0,0,0,0.000046,-0.000235,0,0,255,0.000000,0.000000,-12.124002,-13.224237,2.521713,0.012957,-0.063820,-0.025378,-0.611385,0.056749,-0.029597,0.788741,-0.000266,-0.000931,-0.001693,0.000000,0.000000,0.000000,0.000000,2,3,217,4,3,3
1.432000,3,0,0,-1,0,0.000000,0.000000,0.000000,0.000000,0.000000,0.000000,0.000000,0.000000,0.000000,0.000000,0.000000,0.000000,0.000000,0.000000,0.000000,0.000000,0.000000,0.000000,0.000000,0.000000,0.000000,0.000000,0.000000,0.000000,11946,8959,0,29,1,-6,-2,25565,-0.116230,-0.053193,-1.821272,-0.000004,0.001044,-0.001015,-42,102,-1000,5,0,0,0,0,-0.000112,-0.001290,0,0,255,0.000000,0.000000,-12.120959,-13.230908,2.520071,0.014473,-0.064200,-0.025807,-0.611385,0.056749,-0.029597,0.788741,-0.000266,-0.000931,-0.001693,0.000000,0.000000,0.000000,0.000000,2,3,217,4,3,3
1.465000,3,0,0,-1,0,0.000000,0.000000,0.000000,0.000000,0.000000,0.000000,0.000000,0.000000,0.000000,0.000000,0.000000,0.000000,0.000000,0.000000,0.000000,0.000000,0.000000,0.000000,0.000000,0.000000,0.000000,0.000000,0.000000,0.000000,11946,8959,0,30,1,-6,-2,25565,-0.116188,-0.053191,-1.821290,-0.000138,0.001428,-0.000642,-42,102,-1000,5,-1,1,0,0,-0.000256,0.000601,0,0,255,0.000000,0.000000,-12.119765,-13.233638,2.519296,0.015219,-0.064125,-0.026013,-0.611385,0.056749,-0.029597,0.788741,-0.000266,-0.000931,-0.001693,0.000000,0.000000,0.000000,0.000000,2,3,217,4,3,3
1.498000,3,0,0,-1,0,0.000000,0.000000,0.000000,0.000000,0.000000,0.000000,0.000000,0.000000,0.000000,0.000000,0.000000,0.000000,0.000000,0.000000,0.000000,0.000000,0.000000,0.000000,0.000000,0.000000,0.000000,0.000000,0.000000,0.000000,11946,8959,0,31,1,-6,-2,25565,-0.116180,-0.053204,-1.821296,-0.000287,0.000233,-0.000522,-42,102,-1000,5,0,1,0,0,0.000123,0.001133,0,0,255,0.000000,0.000000,-12.118111,-13.237257,2.519236,0.015975,-0.064040,-0.025907,-0.611385,0.056749,-0.029597,0.788741,-0.000266,-0.000931,-0.001693,0.000000,0.000000,0.000000,0.000000,2,3,217,4,3,3
1.531000,3,0,0,-1,0,0.000000,0.000000,0.000000,0.000000,0.000000,0.000000,0.000000,0.000000,0.000000,0.000000,0.000000,0.000000,0.000000,0.000000,0.000000,0.000000,0.000000,0.000000,0.000000,0.000000,0.000000,0.000000,0.000000,0.000000,11946,8959,0,31,1,-6,-2,25565,-0.116160,-0.053205,-1.821300,0.000286,-0.000709,-0.000578,-42,102,-1000,5,-1,1,0,0,-0.000460,0.000326,0,0,255,0.000000,0.000000,-12.114997,-13.244023,2.518963,0.017306,-0.064110,-0.025874,-0.611385,0.056749,-0.029597,0.788741,-0.000266,-0.000931,-0.001693,0.000000,0.000000,0.000000,0.000000,2,3,217,4,3,3
1.565000,3,0,0,-1,0,0.000000,0.000000,0.000000,0.000000,0.000000,0.000000,0.000000,0.000000,0.000000,0.000000,0.000000,0.000000,0.000000,0.000000,0.000000,0.000000,0.000000,0.000000,0.000000,0.000000,0.000000,0.000000,0.000000,0.000000,11946,8959,0,31,1,-6,-2,25565,-0.116165,-0.053211,-1.821296,0.000444,0.000494,-0.000240,-42,102,-1000,4,0,1,0,0,0.000671,0.000437,0,0,255,0.000000,0.000000,-12.113548,-13.247133,2.518766,0.017924,-0.064123,-0.025812,-0.611385,0.056749,-0.029597,0.788741,-0.000266,-0.000931,-0.001693,0.000000,0.000000,0.000000,0.000000,2,3,217,4,3,3
1.598000,3,0,0,-1,0,0.000000,0.000000,0.000000,0.000000,0.000000,0.000000,0.000000,0.000000,0.000000,0.000000,0.000000,0.000000,0.000000,0.000000,0.000000,0.000000,0.000000,0.000000,0.000000,0.000000,0.000000,0.000000,0.000000,0.000000,11946,8959,0,31,1,-6,-2,25565,-0.116156,-0.053207,-1.821308,-0.000467,-0.000738,-0.000656,-42,102,-1000,5,-1,0,0,0,0.000068,-0.000183,0,0,255,0.000000,0.000000,-12.112158,-13.250095,2.518537,0.018428,-0.064051,-0.025780,-0.611385,0.056749,-0.029597,0.788741,-0.000266,-0.000931,-0.001693,0.000000,0.000000,0.000000,0.000000,2,3,217,4,3,3
1.631000,3,0,0,-1,0,0.000000,0.000000,0.000000,0.000000,0.000000,0.000000,0.000000,0.000000,0.000000,0.000000,0.000000,0.000000,0.000000,0.000000,0.000000,0.000000,0.000000,0.000000,0.000000,0.000000,0.000000,0.000000,0.000000,0.000000,11946,8959,0,31,1,-6,-2,25565,-0.116158,-0.053204,-1.821321,-0.000234,0.000427,-0.000881,-42,101,-1001,5,0,0,0,0,-0.000060,0.000276,0,0,255,0.000000,0.000000,-12.109545,-13.255603,2.517983,0.019423,-0.063784,-0.025883,-0.611385,0.056749,-0.029597,0.788741,-0.000266,-0.000931,-0.001693,0.000000,0.000000,0.000000,0.000000,2,3,217,4,3,3
1.665000,3,0,0,-1,0,0.000000,0.000000,0.000000,0.000000,0.000000,0.000000,0.000000,0.000000,0.000000,0.000000,0.000000,0.000000,0.000000,0.000000,0.000000,0.000000,0.000000,0.000000,0.000000,0.000000,0.000000,0.000000,0.000000,0.000000,11946,8959,0,32,2,-6,-2,25565,-0.116147,-0.053196,-1.821346,0.000253,-0.000055,-0.000628,-42,102,-1000,5,0,0,0,0,-0.000218,-0.000235,0,0,255,0.000000,0.000000,-12.108310,-13.258180,2.517656,0.019817,-0.063622,-0.025808,-0.611385,0.056749,-0.029597,0.788741,-0.000266,-0.000931,-0.001693,0.000000,0.000000,0.000000,0.000000,2,3,217,4,3,3
1.698000,3,0,0,-1,0,0.000000,0.000000,0.000000,0.000000,0.000000,0.000000,0.000000,0.000000,0.000000,0.000000,0.000000,0.000000,0.000000,0.000000,0.000000,0.000000,0.000000,0.000000,0.000000,0.000000,0.000000,0.000000,0.000000,0.000000,11946,8959,0,32,2,-6,-2,25565,-0.116170,-0.053216,-1.821337,-0.001629,-0.001317,0.000006,-42,101,-1000,3,-1,1,0,0,0.000918,0.000467,0,0,255,0.000000,0.000000,-12.106627,-13.261741,2.517579,0.020283,-0.063721,-0.025824,-0.611385,0.056749,-0.029597,0.788741,-0.000266,-0.000931,-0.001693,0.000000,0.000000,0.000000,0.000000,2,3,217,4,3,3
1.731000,3,0,0,-1,0,0.000000,0.000000,0.000000,0.000000,0.000000,0.000000,0.000000,0.000000,0.000000,0.000000,0.000000,0.000000,0.000000,0.000000,0.000000,0.000000,0.000000,0.000000,0.000000,0.000000,0.000000,0.000000,0.000000,0.000000,11946,8959,0,32,2,-6,-2,25565,-0.116141,-0.053170,-1.821373,0.001650,0.003822,-0.000803,-42,102,-1000,7,3,0,0,0,-0.001208,-0.002521,0,0,255,0.000000,0.000000,-12.103351,-13.268759,2.517130,0.021493,-0.063826,-0.025773,-0.611385,0.056749,-0.029597,0.788741,-0.000266,-0.000931,-0.001693,0.000000,0.000000,0.000000,0.000000,2,3,217,4,3,3
1.765000,3,0,0,-1,0,0.000000,0.000000,0.000000,0.000000,0.000000,0.000000,0.000000,0.000000,0.000000,0.000000,0.000000,0.000000,0.000000,0.000000,0.000000,0.000000,0.000000,0.000000,0.000000,0.000000,0.000000,0.000000,0.000000,0.000000,11946,8959,0,32,2,-6,-2,25565,-0.116107,-0.053137,-1.821405,-0.001158,-0.000456,-0.000458,-42,102,-1000,7,1,0,0,0,-0.001519,-0.002243,0,0,255,0.000000,0.000000,-12.101843,-13.271924,2.516878,0.022065,-0.063833,-0.025757,-0.611385,0.056749,-0.029597,0.788741,-0.000266,-0.000931,-0.001693,0.000000,0.000000,0.000000,0.000000,2,3,217,4,3,3
1.798000,3,0,0,-1,0,0.000000,0.000000,0.000000,0.000000,0.000000,0.000000,0.000000,0.000000,0.000000,0.000000,0.000000,0.000000,0.000000,0.000000,0.000000,0.000000,0.000000,0.000000,0.000000,0.000000,0.000000,0.000000,0.000000,0.000000,11946,8959,0,33,2,-6,-2,25565,-0.116111,-0.053141,-1.821405,0.000479,0.000202,-0.000192,-42,102,-1000,6,0,1,0,0,-0.358449,-0.000167,0,0,255,-0.358306,0.000000,-12.100372,-13.274994,2.516569,0.022650,-0.063697,-0.025783,-0.611385,0.056749,-0.029597,0.788741,-0.000266,-0.000931,-0.001693,0.000000,0.000000,0.000000,0.000000,2,3,217,4,3,3
1.831000,3,0,0,-1,0,0.000000,0.000000,0.000000,0.000000,0.000000,0.000000,0.000000,0.000000,0.000000,0.000000,0.000000,0.000000,0.000000,0.000000,0.000000,0.000000,0.000000,0.000000,0.000000,0.000000,0.000000,0.000000,0.000000,0.000000,11946,8959,0,34,2,-6,-2,25565,-0.116127,-0.053160,-1.821407,-0.000974,-0.000149,0.000429,-42,101,-1000,4,0,2,0,0,0.366756,0.000396,0,0,255,0.365866,0.000000,-12.097586,-13.280738,2.515875,0.023521,-0.063404,-0.025687,-0.611385,0.056749,-0.029597,0.788741,-0.000266,-0.000931,-0.001693,0.000000,0.000000,0.000000,0.000000,2,3,217,4,3,3
1.865000,3,0,0,-1,0,0.000000,0.000000,0.000000,0.000000,0.000000,0.000000,0.000000,0.000000,0.000000,0.000000,0.000000,0.000000,0.000000,0.000000,0.000000,0.000000,0.000000,0.000000,0.000000,0.000000,0.000000,0.000000,0.000000,0.000000,11946,8959,0,34,2,-6,-2,25565,-0.116102,-0.053158,-1.821423,0.000900,0.000430,-0.001070,-42,102,-1000,5,0,0,0,0,0.166988,0.166986,0,0,255,0.166825,0.166825,-12.096264,-13.283428,2.515457,0.023942,-0.063137,-0.025614,-0.611385,0.056749,-0.029597,0.788741,-0.000266,-0.000931,-0.001693,0.000000,0.000000,0.000000,0.000000,2,3,217,4,3,3
1.898000,3,0,0,-1,0,0.000000,0.000000,0.000000,0.000000,0.000000,0.000000,0.000000,0.000000,0.000000,0.000000,0.000000,0.000000,0.000000,0.000000,0.000000,0.000000,0.000000,0.000000,0.000000,0.000000,0.000000,0.000000,0.000000,0.000000,11946,8959,0,34,2,-6,-2,25564,-0.116097,-0.053157,-1.821433,0.000371,0.000017,-0.000906,-42,102,-1000,5,0,0,0,0,-0.000923,-0.000554,0,0,255,0.000000,0.000000,-12.094835,-13.286310,2.515290,0.024322,-0.063049,-0.025573,-0.611385,0.056749,-0.029597,0.788741,-0.000266,-0.000931,-0.001693,0.000000,0.000000,0.000000,0.000000,2,3,217,4,3,3
1.931000,3,0,0,-1,0,0.000000,0.000000,0.000000,0.000000,0.000000,0.000000,0.000000,0.000000,0.000000,0.000000,0.000000,0.000000,0.000000,0.000000,0.000000,0.000000,0.000000,0.000000,0.000000,0.000000,0.000000,0.000000,0.000000,0.000000,11946,8959,0,34,2,-6,-2,25564,-0.116098,-0.053139,-1.821434,0.000439,0.001474,-0.000562,-42,102,-1000,6,1,1,0,0,-0.000414,-0.001521,0,0,255,0.000000,0.000000,-12.091573,-13.292997,2.515042,0.025077,-0.062910,-0.025564,-0.611385,0.056749,-0.029597,0.788741,-0.000266,-0.000931,-0.001693,0.000000,0.000000,0.000000,0.000000,2,3,217,4,3,3
1.965000,3,0,0,-1,0,0.000000,0.000000,0.000000,0.000000,0.000000,0.000000,0.000000,0.000000,0.000000,0.000000,0.000000,0.000000,0.000000,0.000000,0.000000,0.000000,0.000000,0.000000,0.000000,0.000000,0.000000,0.000000,0.000000,0.000000,11946,8959,0,35,2,-6,-2,25564,-0.116103,-0.053110,-1.821437,0.000601,0.000233,-0.001044,-41,102,-1001,4,0,1,0,0,0.173119,0.172084,0,0,255,0.172414,0.172414,-12.090129,-13.295885,2.514887,0.025489,-0.062794,-0.025582,-0.611385,0.056749,-0.029597,0.788741,-0.000266,-0.000931,-0.001693,0.000000,0.000000,0.000000,0.000000,2,3,217,4,3,3
1.998000,3,0,0,-1,0,0.000000,0.000000,0.000000,0.000000,0.000000,0.000000,0.000000,0.000000,0.000000,0.000000,0.000000,0.000000,0.000000,0.000000,0.000000,0.000000,0.000000,0.000000,0.000000,0.000000,0.000000,0.000000,0.000000,0.000000,11946,8959,0,35,2,-6,-2,25564,-0.116111,-0.053121,-1.821436,-0.000898,-0.000511,0.000233,-42,102,-1000,4,0,1,0,0,-0.175938,0.000970,0,0,255,-0.176973,0.000000,-12.088697,-13.298752,2.514650,0.025751,-0.062538,-0.025493,-0.611385,0.056749,-0.029597,0.788741,-0.000266,-0.000931,-0.001693,0.000000,0.000000,0.000000,0.000000,2,3,217,4,3,3
2.032000,3,0,0,-1,0,0.000000,0.000000,0.000000,0.000000,0.000000,0.000000,0.000000,0.000000,0.000000,0.000000,0.000000,0.000000,0.000000,0.000000,0.000000,0.000000,0.000000,0.000000,0.000000,0.000000,0.000000,0.000000,0.000000,0.000000,11946,8959,0,35,2,-6,-2,25564,-0.116116,-0.053119,-1.821443,-0.000618,0.000317,-0.000569,-42,102,-1000,4,0,1,0,0,0.000289,0.000102,0,0,255,0.000000,0.000000,-12.085997,-13.304090,2.514090,0.026536,-0.062155,-0.025475,-0.611385,0.056749,-0.029597,0.788741,-0.000266,-0.000931,-0.001693,0.000000,0.000000,0.000000,0.000000,2,3,217,4,3,3
2.065000,3,0,0,-1,0,0.000000,0.000000,0.000000,0.000000,0.000000,0.000000,0.000000,0.000000,0.000000,0.000000,0.000000,0.000000,0.000000,0.000000,0.000000,0.000000,0.000000,0.000000,0.000000,0.000000,0.000000,0.000000,0.000000,0.000000,11946,8959,0,36,2,-6,-2,25564,-0.116095,-0.053085,-1.821466,0.000259,0.000159,-0.000275,-42,102,-1000,6,0,0,0,0,-0.000827,-0.000765,0,0,255,0.000000,0.000000,-12.084691,-13.306646,2.513771,0.026894,-0.061991,-0.025497,-0.611385,0.056749,-0.029597,0.788741,-0.000266,-0.000931,-0.001693,0.000000,0.000000,0.000000,0.000000,2,3,217,4,3,3
2.098000,3,0,0,-1,0,0.000000,0.000000,0.000000,0.000000,0.000000,0.000000,0.000000,0.000000,0.000000,0.000000,0.000000,0.000000,0.000000,0.000000,0.000000,0.000000,0.000000,0.000000,0.000000,0.000000,0.000000,0.000000,0.000000,0.000000,11946,8959,0,36,2,-6,-2,25564,-0.116101,-0.053095,-1.821461,-0.000188,-0.000818,-0.000311,-42,102,-1000,5,-1,1,0,0,0.169736,0.001297,0,0,255,0.169361,0.000000,-12.083336,-13.309216,2.513697,0.027111,-0.061639,-0.025424,-0.611385,0.056749,-0.029597,0.788741,-0.000266,-0.000931,-0.001693,0.000000,0.000000,0.000000,0.000000,2,3,217,4,3,3
2.131000,3,0,0,-1,0,0.000000,0.000000,0.000000,0.000000,0.000000,0.000000,0.000000,0.000000,0.000000,0.000000,0.000000,0.000000,0.000000,0.000000,0.000000,0.000000,0.000000,0.000000,0.000000,0.000000,0.000000,0.000000,0.000000,0.000000,11946,8959,0,36,2,-6,-2,25564,-0.116104,-0.053092,-1.821469,0.000865,0.000308,-0.001327,-42,102,-1000,6,0,0,0,0,0.000551,0.000607,0,0,255,0.000000,0.000000,-12.080160,-13.315224,2.513507,0.027777,-0.060700,-0.025170,-0.611385,0.056749,-0.029597,0.788741,-0.000266,-0.000931,-0.001693,0.000000,0.000000,0.000000,0.000000,2,3,217,4,3,3
2.165000,3,0,0,-1,0,0.000000,0.000000,0.000000,0.000000,0.000000,0.000000,0.000000,0.000000,0.000000,0.000000,0.000000,0.000000,0.000000,0.000000,0.000000,0.000000,0.000000,0.000000,0.000000,0.000000,0.000000,0.000000,0.000000,0.000000,11946,8959,0,36,2,-5,-2,25564,-0.116097,-0.053068,-1.821475,0.000812,0.001126,-0.000848,-42,102,-1000,5,-1,1,0,0,0.000387,0.000894,0,0,255,0.000000,0.000000,-12.078722,-13.317881,2.513398,0.028101,-0.060322,-0.025129,-0.611385,0.056749,-0.029597,0.788741,-0.000266,-0.000931,-0.001693,0.000000,0.000000,0.000000,0.000000,2,3,217,4,3,3
2.198000,3,0,0,-1,0,0.000000,0.000000,0.000000,0.000000,0.000000,0.000000,0.000000,0.000000,0.000000,0.000000,0.000000,0.000000,0.000000,0.000000,0.000000,0.000000,0.000000,0.000000,0.000000,0.000000,0.000000,0.000000,0.000000,0.000000,11946,8959,0,36,2,-5,-2,25564,-0.116095,-0.053052,-1.821479,-0.000433,0.000056,-0.000305,-43,102,-1000,5,0,1,0,0,0.172459,0.172949,0,0,255,0.173348,0.173348,-12.076997,-13.320918,2.513444,0.028506,-0.059663,-0.024938,-0.611385,0.056749,-0.029597,0.788741,-0.000266,-0.000931,-0.001693,0.000000,0.000000,0.000000,0.000000,2,3,217,4,3,3
2.231000,3,0,0,-1,0,0.000000,0.000000,0.000000,0.000000,0.000000,0.000000,0.000000,0.000000,0.000000,0.000000,0.000000,0.000000,0.000000,0.000000,0.000000,0.000000,0.000000,0.000000,0.000000,0.000000,0.000000,0.000000,0.000000,0.000000,11946,8959,0,37,2,-5,-2,25564,-0.116099,-0.053043,-1.821480,0.000153,0.000749,-0.000941,-42,102,-1000,5,0,0,0,0,-0.000049,-0.000214,0,0,255,0.000000,0.000000,-12.074389,-13.325569,2.512959,0.028981,-0.058675,-0.024777,-0.611385,0.056749,-0.029597,0.788741,-0.000266,-0.000931,-0.001693,0.000000,0.000000,0.000000,0.000000,2,3,217,4,3,3
2.264000,3,0,0,-1,0,0.000000,0.000000,0.000000,0.000000,0.000000,0.000000,0.000000,0.000000,0.000000,0.000000,0.000000,0.000000,0.000000,0.000000,0.000000,0.000000,0.000000,0.000000,0.000000,0.000000,0.000000,0.000000,0.000000,0.000000,11946,8959,0,37,2,-5,-2,25564,-0.116103,-0.053023,-1.821497,-0.000569,-0.000274,-0.000708,-42,102,-1000,5,0,1,0,0,0.000696,-0.000063,0,0,255,0.000000,0.000000,-12.073235,-13.327570,2.512750,0.029171,-0.058230,-0.024701,-0.611385,0.056749,-0.029597,0.788741,-0.000266,-0.000931,-0.001693,0.000000,0.000000,0.000000,0.000000,2,3,217,4,3,3
2.298000,3,0,0,-1,0,0.000000,0.000000,0.000000,0.000000,0.000000,0.000000,0.000000,0.000000,0.000000,0.000000,0.000000,0.000000,0.000000,0.000000,0.000000,0.000000,0.000000,0.000000,0.000000,0.000000,0.000000,0.000000,0.000000,0.000000,11946,8959,0,37,2,-5,-2,25564,-0.116104,-0.053013,-1.821499,-0.000062,0.000979,-0.000771,-42,101,-1000,5,0,0,0,0,-0.000136,-0.000602,0,0,255,0.000000,0.000000,-12.071978,-13.329762,2.512389,0.029269,-0.057753,-0.024779,-0.611385,0.056749,-0.029597,0.788741,-0.000266,-0.000931,-0.001693,0.000000,0.000000,0.000000,0.000000,2,3,217,4,3,3
2.331000,3,0,0,-1,0,0.000000,0.000000,0.000000,0.000000,0.000000,0.000000,0.000000,0.000000,0.000000,0.000000,0.000000,0.000000,0.000000,0.000000,0.000000,0.000000,0.000000,0.000000,0.000000,0.000000,0.000000,0.000000,0.000000,0.000000,11946,8959,0,38,3,-5,-2,25564,-0.116074,-0.053026,-1.821499,-0.000081,-0.000322,-0.000206,-42,102,-1000,5,0,1,0,0,0.000099,0.000216,0,0,255,0.000000,0.000000,-12.067314,-13.334963,2.511669,0.031414,-0.057152,-0.024746,-0.611385,0.056749,-0.029597,0.788741,-0.000266,-0.000931,-0.001693,0.000000,0.000000,0.000000,0.000000,2,3,217,4,3,3
2.364000,3,0,0,-1,0,0.000000,0.000000,0.000000,0.000000,0.000000,0.000000,0.000000,0.000000,0.000000,0.000000,0.000000,0.000000,0.000000,0.000000,0.000000,0.000000,0.000000,0.000000,0.000000,0.000000,0.000000,0.000000,0.000000,0.000000,11946,8959,0,38,3,-5,-2,25564,-0.116046,-0.053041,-1.821520,-0.000758,-0.001032,-0.000486,-42,102,-1000,4,-1,0,0,0,-0.184087,0.000774,0,0,255,-0.184719,0.000000,-12.064637,-13.337759,2.511192,0.032738,-0.056799,-0.024827,-0.611385,0.056749,-0.029597,0.788741,-0.000266,-0.000931,-0.001693,0.000000,0.000000,0.000000,0.000000,2,3,217,4,3,3
2.398000,3,0,0,-1,0,0.000000,0.000000,0.000000,0.000000,0.000000,0.000000,0.000000,0.000000,0.000000,0.000000,0.000000,0.000000,0.000000,0.000000,0.000000,0.000000,0.000000,0.000000,0.000000,0.000000,0.000000,0.000000,0.000000,0.000000,11946,8959,0,39,3,-5,-2,25564,-0.115996,-0.053021,-1.821545,0.001150,0.001610,-0.001317,-42,102,-1000,6,1,0,0,0,-0.000415,-0.000087,0,0,255,0.000000,0.000000,-12.062096,-13.340357,2.510721,0.033870,-0.056484,-0.024966,-0.611385,0.056749,-0.029597,0.788741,-0.000266,-0.000931,-0.001693,0.000000,0.000000,0.000000,0.000000,2,3,217,4,3,3
2.431000,3,0,0,-1,0,0.000000,0.000000,0.000000,0.000000,0.000000,0.000000,0.000000,0.000000,0.000000,0.000000,0.000000,0.000000,0.000000,0.000000,0.000000,0.000000,0.000000,0.000000,0.000000,0.000000,0.000000,0.000000,0.000000,0.000000,11946,8959,0,40,3,-5,-2,25564,-0.115968,-0.053013,-1.821547,0.000264,0.000567,0.000386,-42,102,-1000,5,0,1,0,0,0.165101,-0.000582,0,0,255,0.165600,0.000000,-12.057254,-13.345235,2.509707,0.036036,-0.055720,-0.025215,-0.611385,0.056749,-0.029597,0.788741,-0.000266,-0.000931,-0.001693,0.000000,0.000000,0.000000,0.000000,2,3,217,4,3,3
2.464000,3,0,0,-1,0,0.000000,0.000000,0.000000,0.000000,0.000000,0.000000,0.000000,0.000000,0.000000,0.000000,0.000000,0.000000,0.000000,0.000000,0.000000,0.000000,0.000000,0.000000,0.000000,0.000000,0.000000,0.000000,0.000000,0.000000,11946,8959,0,40,3,-5,-2,25564,-0.115916,-0.052972,-1.821573,0.000625,0.001945,-0.000896,-42,102,-1000,4,-1,1,0,0,0.188736,0.000017,0,0,255,0.188780,0.000000,-12.054972,-13.347475,2.509195,0.037109,-0.055369,-0.025257,-0.611385,0.056749,-0.029597,0.788741,-0.000266,-0.000931,-0.001693,0.000000,0.000000,0.000000,0.000000,2,3,217,4,3,3
2.498000,3,0,0,-1,0,0.000000,0.000000,0.000000,0.000000,0.000000,0.000000,0.000000,0.000000,0.000000,0.000000,0.000000,0.000000,0.000000,0.000000,0.000000,0.000000,0.000000,0.000000,0.000000,0.000000,0.000000,0.000000,0.000000,0.000000,11946,8959,0,40,3,-5,-2,25565,-0.115921,-0.052937,-1.821335,-0.002604,-0.001533,0.017729,-42,100,-1000,3,-1,19,0,0,0.002420,0.001452,0,0,255,0.000000,0.000000,-12.052487,-13.350345,2.509431,0.037634,-0.054610,-0.025096,-0.611385,0.056749,-0.029597,0.788741,-0.000266,-0.000931,-0.001693,0.000000,0.000000,0.000000,0.000000,2,3,217,4,3,3
2.531000,3,0,0,-1,0,0.000000,0.000000,0.000000,0.000000,0.000000,0.000000,0.000000,0.000000,0.000000,0.000000,0.000000,0.000000,0.000000,0.000000,0.000000,0.000000,0.000000,0.000000,0.000000,0.000000,0.000000,0.000000,0.000000,0.000000,11946,8959,0,40,3,-5,-2,25568,-0.116012,-0.052823,-1.820898,-0.001552,0.003300,0.004733,-42,102,-1000,4,2,6,0,0,-0.174078,-0.000632,0,0,255,-0.178102,0.000000,-12.047838,-13.355594,2.509709,0.038035,-0.053801,-0.024636,-0.611385,0.056749,-0.029597,0.788741,-0.000266,-0.000931,-0.001693,0.000000,0.000000,0.000000,0.000000,2,3,217,4,3,3
2.564000,3,0,0,-1,0,0.000000,0.000000,0.000000,0.000000,0.000000,0.000000,0.000000,0.000000,0.000000,0.000000,0.000000,0.000000,0.000000,0.000000,0.000000,0.000000,0.000000,0.000000,0.000000,0.000000,0.000000,0.000000,0.000000,0.000000,11946,8959,0,40,3,-5,-2,25568,-0.116759,-0.052659,-1.820589,-0.023840,0.001354,0.009803,-43,101,-1003,-9,-4,0,0,0,0.014850,0.180293,0,0,255,0.000000,0.181912,-12.045185,-13.358361,2.510103,0.039252,-0.053754,-0.023243,-0.611385,0.056749,-0.029597,0.788741,-0.000266,-0.000931,-0.001693,0.000000,0.000000,0.000000,0.000000,2,3,217,4,3,3
2.598000,3,0,0,-1,0,0.000000,0.000000,0.000000,0.000000,0.000000,0.000000,0.000000,0.000000,0.000000,0.000000,0.000000,0.000000,0.000000,0.000000,0.000000,0.000000,0.000000,0.000000,0.000000,0.000000,0.000000,0.000000,0.000000,0.000000,11946,8959,0,40,4,-5,-2,25567,-0.116914,-0.052544,-1.820983,0.000856,0.007864,-0.023591,-43,106,-997,6,7,-21,0,0,0.013671,-0.004861,0,0,255,0.000000,0.000000,-12.043179,-13.360523,2.510093,0.039374,-0.051243,-0.020776,-0.611385,0.056749,-0.029597,0.788741,-0.000266,-0.000931,-0.001693,0.000000,0.000000,0.000000,0.000000,2,3,217,4,3,3
2.632000,3,0,0,-1,0,0.000000,0.000000,0.000000,0.000000,0.000000,0.000000,0.000000,0.000000,0.000000,0.000000,0.000000,0.000000,0.000000,0.000000,0.000000,0.000000,0.000000,0.000000,0.000000,0.000000,0.000000,0.000000,0.000000,0.000000,11946,8959,0,40,4,-5,-2,25566,-0.116761,-0.052521,-1.821135,0.009651,0.008695,0.006067,-41,103,-996,15,8,7,0,0,-0.171542,-0.003918,0,0,255,-0.162677,0.000000,-12.039246,-13.364650,2.509836,0.041204,-0.052371,-0.026838,-0.611385,0.056749,-0.029597,0.788741,-0.000266,-0.000931,-0.001693,0.000000,0.000000,0.000000,0.000000,2,3,217,4,3,3
2.666000,3,0,0,-1,0,0.000000,0.000000,0.000000,0.000000,0.000000,0.000000,0.000000,0.000000,0.000000,0.000000,0.000000,0.000000,0.000000,0.000000,0.000000,0.000000,0.000000,0.000000,0.000000,0.000000,0.000000,0.000000,0.000000,0.000000,11946,8959,0,40,4,-5,-2,25566,-0.115942,-0.052743,-1.821152,0.030821,0.002870,-0.017662,-40,104,-1006,7,-18,8,0,0,-0.025005,0.001126,0,0,255,0.000000,0.000000,-12.037445,-13.366492,2.509692,0.043855,-0.050320,-0.018791,-0.611385,0.056749,-0.029597,0.788741,-0.000266,-0.000931,-0.001693,0.000000,0.000000,0.000000,0.000000,2,3,217,4,3,3
2.701000,3,0,0,-1,0,0.000000,0.000000,0.000000,0.000000,0.000000,0.000000,0.000000,0.000000,0.000000,0.000000,0.000000,0.000000,0.000000,0.000000,0.000000,0.000000,0.000000,0.000000,0.000000,0.000000,0.000000,0.000000,0.000000,0.000000,11946,8959,0,40,3,-5,-2,25566,-0.115389,-0.052669,-1.821137,0.027215,-0.002238,0.008000,-41,97,-1002,32,-2,9,0,0,-0.005912,0.008787,0,0,255,0.000000,0.000000,-12.035350,-13.371453,2.508982,0.042203,-0.050690,-0.024444,-0.611385,0.056749,-0.029597,0.788741,-0.000266,-0.000931,-0.001693,0.000000,0.000000,0.000000,0.000000,2,3,217,4,3,3
2.734000,3,0,0,-1,0,0.000000,0.000000,0.000000,0.000000,0.000000,0.000000,0.000000,0.000000,0.000000,0.000000,0.000000,0.000000,0.000000,0.000000,0.000000,0.000000,0.000000,0.000000,0.000000,0.000000,0.000000,0.000000,0.000000,0.000000,11946,8959,0,41,3,-5,-2,25567,-0.115387,-0.052886,-1.820955,-0.005729,-0.014163,0.014285,-41,100,-1000,0,-14,15,0,0,-0.189803,-0.000193,0,0,255,-0.174863,0.000000,-12.034153,-13.375097,2.508698,0.040312,-0.050269,-0.022623,-0.611385,0.056749,-0.029597,0.788741,-0.000266,-0.000931,-0.001693,0.000000,0.000000,0.000000,0.000000,2,3,217,4,3,3
2.766000,3,0,0,-1,0,0.000000,0.000000,0.000000,0.000000,0.000000,0.000000,0.000000,0.000000,0.000000,0.000000,0.000000,0.000000,0.000000,0.000000,0.000000,0.000000,0.000000,0.000000,0.000000,0.000000,0.000000,0.000000,0.000000,0.000000,11946,8959,0,42,4,-4,-2,25567,-0.115528,-0.052348,-1.820988,0.003366,0.031020,-0.019007,-43,99,-997,12,9,12,0,0,0.004562,0.004145,0,0,255,0.000000,0.000000,-12.033120,-13.377696,2.508306,0.036543,-0.050791,-0.026696,-0.611385,0.056749,-0.029597,0.788741,-0.000266,-0.000931,-0.001693,0.000000,0.000000,0.000000,0.000000,2,3,217,4,3,3
2.799000,3,0,0,-1,0,0.000000,0.000000,0.000000,0.000000,0.000000,0.000000,0.000000,0.000000,0.000000,0.000000,0.000000,0.000000,0.000000,0.000000,0.000000,0.000000,0.000000,0.000000,0.000000,0.000000,0.000000,0.000000,0.000000,0.000000,11946,8959,0,42,3,-5,-2,25568,-0.116095,-0.052400,-1.820842,-0.028180,-0.010060,0.002378,-45,101,-998,-22,-10,3,0,0,0.001422,-0.020512,0,0,255,0.000000,0.000000,-12.032155,-13.380101,2.507936,0.039960,-0.049808,-0.024115,-0.611385,0.056749,-0.029597,0.788741,-0.000266,-0.000931,-0.001693,0.000000,0.000000,0.000000,0.000000,2,3,217,4,3,3
2.833000,3,0,0,-1,0,0.000000,0.000000,0.000000,0.000000,0.000000,0.000000,0.000000,0.000000,0.000000,0.000000,0.000000,0.000000,0.000000,0.000000,0.000000,0.000000,0.000000,0.000000,0.000000,0.000000,0.000000,0.000000,0.000000,0.000000,11946,8959,0,42,3,-4,-2,25569,-0.116313,-0.052103,-1.820637,-0.010824,0.001153,0.024934,-42,103,-1000,-5,0,26,0,0,-0.003299,-0.015712,0,0,255,0.000000,0.000000,-12.030248,-13.384684,2.507043,0.037235,-0.048054,-0.023758,-0.611385,0.056749,-0.029597,0.788741,-0.000266,-0.000931,-0.001693,0.000000,0.000000,0.000000,0.000000,2,3,217,4,3,3
2.866000,3,0,0,-1,0,0.000000,0.000000,0.000000,0.000000,0.000000,0.000000,0.000000,0.000000,0.000000,0.000000,0.000000,0.000000,0.000000,0.000000,0.000000,0.000000,0.000000,0.000000,0.000000,0.000000,0.000000,0.000000,0.000000,0.000000,11946,8959,0,43,3,-5,-2,25563,-0.115242,-0.051937,-1.821660,0.054709,0.001943,-0.021925,-39,103,-1002,19,7,-23,0,0,-0.116964,-0.002815,0,0,255,-0.117154,0.000000,-12.029366,-13.386748,2.506590,0.039826,-0.047987,-0.030211,-0.611385,0.056749,-0.029597,0.788741,-0.000266,-0.000931,-0.001693,0.000000,0.000000,0.000000,0.000000,2,3,217,4,3,3
2.899000,3,0,0,-1,0,0.000000,0.000000,0.000000,0.000000,0.000000,0.000000,0.000000,0.000000,0.000000,0.000000,0.000000,0.000000,0.000000,0.000000,0.000000,0.000000,0.000000,0.000000,0.000000,0.000000,0.000000,0.000000,0.000000,0.000000,11946,8959,0,43,4,-5,-3,25568,-0.112157,-0.051448,-1.820783,0.150881,0.019659,0.054059,-44,116,-1007,156,19,55,0,0,-0.532140,-0.019617,0,0,255,-0.379433,0.000000,-12.028070,-13.389831,2.506618,0.041181,-0.049723,-0.025975,-0.611385,0.056749,-0.029597,0.788741,-0.000266,-0.000931,-0.001693,0.000000,0.000000,0.000000,0.000000,2,3,217,4,3,3
2.933000,3,0,0,-1,0,0.000000,0.000000,0.000000,0.000000,0.000000,0.000000,0.000000,0.000000,0.000000,0.000000,0.000000,0.000000,0.000000,0.000000,0.000000,0.000000,0.000000,0.000000,0.000000,0.000000,0.000000,0.000000,0.000000,0.000000,11946,8959,0,43,5,-4,-2,25569,-0.107000,-0.050749,-1.820581,0.231646,0.017129,-0.018008,-48,116,-1007,237,16,-16,0,0,-0.197020,-0.028972,0,0,255,0.000000,0.000000,-12.025081,-13.395808,2.506269,0.049698,-0.051645,-0.029819,-0.611385,0.056749,-0.029597,0.788741,-0.000266,-0.000931,-0.001693,0.000000,0.000000,0.000000,0.000000,2,3,217,4,3,3
2.966000,3,0,0,-1,0,0.000000,0.000000,0.000000,0.000000,0.000000,0.000000,0.000000,0.000000,0.000000,0.000000,0.000000,0.000000,0.000000,0.000000,0.000000,0.000000,0.000000,0.000000,0.000000,0.000000,0.000000,0.000000,0.000000,0.000000,11946,8959,0,44,4,-5,-3,25560,-0.094781,-0.050643,-1.822244,0.242155,-0.010177,-0.019465,-39,99,-1008,261,-9,-43,0,0,-0.355648,-0.021326,0,0,255,-0.119152,0.000000,-12.023600,-13.398577,2.506005,0.050272,-0.050169,-0.032676,-0.611385,0.056749,-0.029597,0.788741,-0.000266,-0.000931,-0.001693,0.000000,0.000000,0.000000,0.000000,2,3,217,4,3,3
2.999000,3,0,0,-1,0,0.000000,0.000000,0.000000,0.000000,0.000000,0.000000,0.000000,0.000000,0.000000,0.000000,0.000000,0.000000,0.000000,0.000000,0.000000,0.000000,0.000000,0.000000,0.000000,0.000000,0.000000,0.000000,0.000000,0.000000,11946,8959,0,44,4,-4,-3,25558,-0.088729,-0.050197,-1.822541,0.227782,0.013074,-0.004182,-43,71,-1009,233,12,-2,0,0,0.121366,-0.020040,0,0,255,0.346559,0.000000,-12.022112,-13.401266,2.505607,0.048520,-0.050938,-0.033704,-0.611385,0.056749,-0.029597,0.788741,-0.000266,-0.000931,-0.001693,0.000000,0.000000,0.000000,0.000000,2,3,217,4,3,3
3.033000,3,0,0,-1,0,0.000000,0.000000,0.000000,0.000000,0.000000,0.000000,0.000000,0.000000,0.000000,0.000000,0.000000,0.000000,0.000000,0.000000,0.000000,0.000000,0.000000,0.000000,0.000000,0.000000,0.000000,0.000000,0.000000,0.000000,11946,8959,0,45,4,-4,-3,25556,-0.084026,-0.049372,-1.822946,0.198891,0.055662,-0.019024,-45,63,-1010,204,55,-17,0,0,0.047930,-0.035799,0,0,255,0.233856,0.000000,-12.019415,-13.406591,2.505043,0.042380,-0.047865,-0.035729,-0.611385,0.056749,-0.029597,0.788741,-0.000266,-0.000931,-0.001693,0.000000,0.000000,0.000000,0.000000,2,3,217,4,3,3
3.067000,3,0,0,-1,0,0.000000,0.000000,0.000000,0.000000,0.000000,0.000000,0.000000,0.000000,0.000000,0.000000,0.000000,0.000000,0.000000,0.000000,0.000000,0.000000,0.000000,0.000000,0.000000,0.000000,0.000000,0.000000,0.000000,0.000000,11946,8959,0,44,4,-4,-3,25547,-0.078540,-0.048362,-1.824435,0.074295,0.000002,-0.033186,-38,58,-1015,169,13,-35,0,0,-0.139891,0.142948,0,0,255,0.000000,0.166116,-12.018268,-13.408727,2.504757,0.040731,-0.049556,-0.036345,-0.611385,0.056749,-0.029597,0.788741,-0.000266,-0.000931,-0.001693,0.000000,0.000000,0.000000,0.000000,2,3,217,4,3,3
3.100000,3,0,0,-1,0,0.000000,0.000000,0.000000,0.000000,0.000000,0.000000,0.000000,0.000000,0.000000,0.000000,0.000000,0.000000,0.000000,0.000000,0.000000,0.000000,0.000000,0.000000,0.000000,0.000000,0.000000,0.000000,0.000000,0.000000,11946,8959,0,43,3,-4,-3,25547,-0.077524,-0.047821,-1.824559,0.025794,0.048955,0.007081,-36,50,-1003,31,48,8,0,0,-0.228577,0.159937,0,0,255,-0.181331,0.181331,-12.015940,-13.412621,2.505873,0.036479,-0.047810,-0.030845,-0.611385,0.056749,-0.029597,0.788741,-0.000266,-0.000931,-0.001693,0.000000,0.000000,0.000000,0.000000,2,3,217,4,3,3
3.134000,3,0,0,-1,0,0.000000,0.000000,0.000000,0.000000,0.000000,0.000000,0.000000,0.000000,0.000000,0.000000,0.000000,0.000000,0.000000,0.000000,0.000000,0.000000,0.000000,0.000000,0.000000,0.000000,0.000000,0.000000,0.000000,0.000000,11946,8959,0,43,3,-4,-4,25548,-0.076686,-0.047290,-1.824278,0.043189,0.031436,0.015289,-39,59,-1008,48,31,16,0,0,-0.494581,-0.035924,0,0,255,-0.476706,0.000000,-12.011805,-13.419666,2.507566,0.036956,-0.049730,-0.044625,-0.611385,0.056749,-0.029597,0.788741,-0.000266,-0.000931,-0.001693,0.000000,0.000000,0.000000,0.000000,2,3,217,4,3,3
3.168000,3,0,0,-1,0,0.000000,0.000000,0.000000,0.000000,0.000000,0.000000,0.000000,0.000000,0.000000,0.000000,0.000000,0.000000,0.000000,0.000000,0.000000,0.000000,0.000000,0.000000,0.000000,0.000000,0.000000,0.000000,0.000000,0.000000,11946,8959,0,41,3,-4,-4,25554,-0.075922,-0.045962,-1.823294,0.003180,0.037134,0.015172,-36,65,-1019,54,45,20,0,0,-0.534638,0.151154,0,0,255,-0.518766,0.172922,-12.009820,-13.422967,2.508684,0.039782,-0.047028,-0.034559,-0.611385,0.056749,-0.029597,0.788741,-0.000266,-0.000931,-0.001693,0.000000,0.000000,0.000000,0.000000,2,3,217,4,3,3
3.201000,3,0,0,-1,0,0.000000,0.000000,0.000000,0.000000,0.000000,0.000000,0.000000,0.000000,0.000000,0.000000,0.000000,0.000000,0.000000,0.000000,0.000000,0.000000,0.000000,0.000000,0.000000,0.000000,0.000000,0.000000,0.000000,0.000000,11946,8959,0,39,3,-4,-5,25558,-0.076194,-0.044455,-1.822639,-0.017463,0.046325,0.027296,-37,57,-1020,-11,45,28,0,0,-0.001511,0.279475,0,0,255,0.000000,0.333018,-12.006183,-13.428970,2.510223,0.037482,-0.047260,-0.047054,-0.611385,0.056749,-0.029597,0.788741,-0.000266,-0.000931,-0.001693,0.000000,0.000000,0.000000,0.000000,2,3,217,4,3,3
3.233000,3,0,0,-1,0,0.000000,0.000000,0.000000,0.000000,0.000000,0.000000,0.000000,0.000000,0.000000,0.000000,0.000000,0.000000,0.000000,0.000000,0.000000,0.000000,0.000000,0.000000,0.000000,0.000000,0.000000,0.000000,0.000000,0.000000,11946,8959,0,39,3,-4,-5,25560,-0.075505,-0.041866,-1.822212,0.047887,0.107899,0.022929,-46,56,-1025,53,107,24,0,0,0.001992,-0.099016,0,0,255,0.000000,0.000000,-12.004497,-13.431634,2.510655,0.037329,-0.040816,-0.046455,-0.611385,0.056749,-0.029597,0.788741,-0.000266,-0.000931,-0.001693,0.000000,0.000000,0.000000,0.000000,2,3,217,4,3,3
3.266000,3,0,0,-1,0,0.000000,0.000000,0.000000,0.000000,0.000000,0.000000,0.000000,0.000000,0.000000,0.000000,0.000000,0.000000,0.000000,0.000000,0.000000,0.000000,0.000000,0.000000,0.000000,0.000000,0.000000,0.000000,0.000000,0.000000,11946,8959,0,37,4,-4,-5,25564,-0.073560,-0.034951,-1.821460,0.078081,0.083019,0.022477,-44,68,-1020,16,185,29,0,0,-0.225878,-0.140381,0,0,255,-0.185634,0.000000,-12.002805,-13.434126,2.511344,0.040485,-0.043706,-0.058700,-0.611385,0.056749,-0.029597,0.788741,-0.000266,-0.000931,-0.001693,0.000000,0.000000,0.000000,0.000000,2,3,217,4,3,3
3.299000,3,0,0,-1,0,0.000000,0.000000,0.000000,0.000000,0.000000,0.000000,0.000000,0.000000,0.000000,0.000000,0.000000,0.000000,0.000000,0.000000,0.000000,0.000000,0.000000,0.000000,0.000000,0.000000,0.000000,0.000000,0.000000,0.000000,11946,8959,0,28,4,-4,-6,25566,-0.072898,-0.031027,-1.821192,0.003489,0.187367,0.019811,-28,58,-1016,9,186,21,0,0,-0.230896,-0.123930,0,0,255,-0.175982,0.000000,-12.001140,-13.436528,2.511779,0.040833,-0.042636,-0.059304,-0.611385,0.056749,-0.029597,0.788741,-0.000266,-0.000931,-0.001693,0.000000,0.000000,0.000000,0.000000,2,3,217,4,3,3
3.333000,3,0,0,-1,0,0.000000,0.000000,0.000000,0.000000,0.000000,0.000000,0.000000,0.000000,0.000000,0.000000,0.000000,0.000000,0.000000,0.000000,0.000000,0.000000,0.000000,0.000000,0.000000,0.000000,0.000000,0.000000,0.000000,0.000000,11946,8959,0,20,3,-3,-6,25567,-0.072641,-0.024158,-1.821044,0.043587,0.230348,0.026918,-31,44,-1041,49,229,28,0,0,0.178581,-0.235444,0,0,255,0.169296,0.000000,-11.993685,-13.446129,2.529013,0.039049,-0.036807,-0.069246,-0.611385,0.056749,-0.029597,0.788741,-0.000266,-0.000931,-0.001693,0.000000,0.000000,0.000000,0.000000,2,3,217,4,3,3
3.367000,3,0,0,-1,0,0.000000,0.000000,0.000000,0.000000,0.000000,0.000000,0.000000,0.000000,0.000000,0.000000,0.000000,0.000000,0.000000,0.000000,0.000000,0.000000,0.000000,0.000000,0.000000,0.000000,0.000000,0.000000,0.000000,0.000000,11946,8959,0,6,4,-3,-7,25570,-0.070871,-0.015257,-1.820539,0.074408,0.120985,0.023344,-26,50,-1060,38,186,31,0,0,-0.049068,-0.237361,0,0,255,0.000000,0.000000,-11.989107,-13.451990,2.541085,0.040877,-0.041373,-0.081201,-0.611385,0.056749,-0.029597,0.788741,-0.000266,-0.000931,-0.001693,0.000000,0.000000,0.000000,0.000000,2,3,217,4,3,3
3.401000,3,0,0,-1,0,0.000000,0.000000,0.000000,0.000000,0.000000,0.000000,0.000000,0.000000,0.000000,0.000000,0.000000,0.000000,0.000000,0.000000,0.000000,0.000000,0.000000,0.000000,0.000000,0.000000,0.000000,0.000000,0.000000,0.000000,11946,8959,0,0,3,-4,-9,25573,-0.070444,-0.009599,-1.820020,0.056328,0.210715,0.047870,-1,44,-1041,61,210,49,0,0,0.740926,-0.444958,0,0,255,0.738720,-0.184680,-11.984097,-13.458223,2.549656,0.037780,-0.044025,-0.082875,-0.611385,0.056749,-0.029597,0.788741,-0.000266,-0.000931,-0.001693,0.000000,0.000000,0.000000,0.000000,2,3,217,4,3,3
3.433000,3,0,0,-1,0,0.000000,0.000000,0.000000,0.000000,0.000000,0.000000,0.000000,0.000000,0.000000,0.000000,0.000000,0.000000,0.000000,0.000000,0.000000,0.000000,0.000000,0.000000,0.000000,0.000000,0.000000,0.000000,0.000000,0.000000,11946,8959,0,-4,3,-3,-10,25578,-0.069102,-0.002523,-1.819046,0.052624,0.277468,0.061572,-3,35,-1045,58,277,63,0,0,0.093489,-0.426014,0,0,255,0.180088,-0.180088,-11.980181,-13.463234,2.558118,0.032609,-0.033703,-0.092508,-0.611385,0.056749,-0.029597,0.788741,-0.000266,-0.000931,-0.001693,0.000000,0.000000,0.000000,0.000000,2,3,217,4,3,3
3.466000,3,0,0,-1,0,0.000000,0.000000,0.000000,0.000000,0.000000,0.000000,0.000000,0.000000,0.000000,0.000000,0.000000,0.000000,0.000000,0.000000,0.000000,0.000000,0.000000,0.000000,0.000000,0.000000,0.000000,0.000000,0.000000,0.000000,11946,8959,0,-12,2,-2,-12,25602,-0.067232,0.005625,-1.814810,-0.087095,0.099052,0.114003,-16,30,-1056,102,209,91,0,0,0.447864,-0.555965,0,0,255,0.550057,-0.366705,-11.977785,-13.466235,2.563008,0.028571,-0.024182,-0.106771,-0.611385,0.056749,-0.029597,0.788741,-0.000266,-0.000931,-0.001693,0.000000,0.000000,0.000000,0.000000,2,3,217,4,3,3
