g_app_elapsed_time,g_system_state,g_target_too_close,g_target_valid,g_target_detection_id,g_target_track_id,g_target_cntr_offset_x,g_target_cntr_offset_y,g_target_height,g_target_width,g_target_aspect,g_target_left,g_target_right,g_target_top,g_target_bottom,d_target_h,d_target_w,g_x_target,g_y_target,g_z_target,d_target,g_x_error,g_y_error,g_delta_angle,g_camera_tilt_angle,g_delta_d_x,g_delta_d_z,g_vx_adjust,g_vy_adjust,g_vz_adjust,g_mav_veh_sys_stat_voltage_battery,g_mav_veh_sys_stat_current_battery,g_mav_veh_sys_stat_battery_remaining,g_mav_veh_rel_alt,g_mav_veh_gps_vx,g_mav_veh_gps_vy,g_mav_veh_gps_vz,g_mav_veh_gps_hdg,g_mav_veh_roll,g_mav_veh_pitch,g_mav_veh_yaw,g_mav_veh_rollspeed,g_mav_veh_pitchspeed,g_mav_veh_yawspeed,g_mav_veh_imu_ax,g_mav_veh_imu_ay,g_mav_veh_imu_az,g_mav_veh_imu_xgyro,g_mav_veh_imu_ygyro,g_mav_veh_imu_zgyro,g_mav_veh_rngfdr_current_distance,g_mav_veh_rngfdr_signal_quality,g_mav_veh_flow_comp_m_x,g_mav_veh_flow_comp_m_y,g_mav_veh_flow_x,g_mav_veh_flow_y,g_mav_veh_flow_quality,g_mav_veh_flow_rate_x,g_mav_veh_flow_rate_y,g_mav_veh_local_ned_x,g_mav_veh_local_ned_y,g_mav_veh_local_ned_z,g_mav_veh_local_ned_vx,g_mav_veh_local_ned_vy,g_mav_veh_local_ned_vz,g_mav_veh_q1_actual,g_mav_veh_q2_actual,g_mav_veh_q3_actual,g_mav_veh_q4_actual,g_mav_veh_roll_rate_actual,g_mav_veh_pitch_rate_actual,g_mav_veh_yaw_rate_actual,g_mav_veh_repr_offset_q[0],g_mav_veh_repr_offset_q[1],g_mav_veh_repr_offset_q[2],g_mav_veh_repr_offset_q[3],g_mav_veh_type,g_mav_veh_autopilot_type,g_mav_veh_base_mode, g_mav_veh_custom_mode,g_mav_veh_state,g_mav_veh_mavlink_version
0.000000,0,0,0,-1,0,0.000000,0.000000,0.000000,0.000000,0.000000,0.000000,0.000000,0.000000,0.000000,0.000000,0.000000,0.000000,0.000000,0.000000,0.000000,0.000000,0.000000,0.000000,0.000000,0.000000,0.000000,0.000000,0.000000,0.000000,0,0,0,0,0,0,0,0,0.000000,0.000000,0.000000,0.000000,0.000000,0.000000,0,0,0,0,0,0,0,0,0.000000,0.000000,0,0,0,0.000000,0.000000,0.000000,0.000000,0.000000,0.000000,0.000000,0.000000,0.000000,0.000000,0.000000,0.000000,0.000000,0.000000,0.000000,0.000000,0.000000,0.000000,0.000000,0,0,0,0,0,0
0.000000,1,0,0,-1,0,0.000000,0.000000,0.000000,0.000000,0.000000,0.000000,0.000000,0.000000,0.000000,0.000000,0.000000,0.000000,0.000000,0.000000,0.000000,0.000000,0.000000,0.000000,0.000000,0.000000,0.000000,0.000000,0.000000,0.000000,12401,12386,0,260,0,-2,0,22839,-0.067014,-0.069287,-2.297145,0.000567,-0.000376,-0.000412,-58,41,-1003,6,0,1,0,0,-0.000231,0.000241,0,0,255,0.000000,0.000000,-7.910111,-10.158638,3.599536,0.009931,-0.028530,0.004924,0.408540,-0.045299,0.016365,-0.911469,-0.001206,0.000253,0.000537,0.000000,0.000000,0.000000,0.000000,2,3,89,5,3,3
0.153000,2,0,0,-1,0,0.000000,0.000000,0.000000,0.000000,0.000000,0.000000,0.000000,0.000000,0.000000,0.000000,0.000000,0.000000,0.000000,0.000000,0.000000,0.000000,0.000000,0.000000,0.000000,0.000000,0.000000,0.000000,0.000000,0.000000,12401,12386,0,259,0,-2,0,22839,-0.067036,-0.069320,-2.297140,-0.001092,-0.000481,0.000227,-57,41,-1003,6,0,0,0,0,0.000054,0.000358,0,0,255,0.000000,0.000000,-7.909854,-10.160070,3.600083,0.009599,-0.028698,0.005117,0.408540,-0.045299,0.016365,-0.911469,-0.001206,0.000253,0.000537,0.000000,0.000000,0.000000,0.000000,2,3,89,5,3,3
0.185000,3,0,0,-1,0,0.000000,0.000000,0.000000,0.000000,0.000000,0.000000,0.000000,0.000000,0.000000,0.000000,0.000000,0.000000,0.000000,0.000000,0.000000,0.000000,0.000000,0.000000,0.000000,0.000000,0.000000,0.000000,0.000000,0.000000,12401,12386,0,258,0,-2,0,22839,-0.067038,-0.069344,-2.297145,-0.000171,-0.001237,-0.000847,-58,41,-1004,6,-1,0,0,0,-0.000086,0.000295,0,0,255,0.000000,0.000000,-7.909614,-10.161764,3.600782,0.009391,-0.028899,0.005263,0.408540,-0.045299,0.016365,-0.911469,-0.001206,0.000253,0.000537,0.000000,0.000000,0.000000,0.000000,2,3,89,4,3,3
0.219000,3,0,0,-1,0,0.000000,0.000000,0.000000,0.000000,0.000000,0.000000,0.000000,0.000000,0.000000,0.000000,0.000000,0.000000,0.000000,0.000000,0.000000,0.000000,0.000000,0.000000,0.000000,0.000000,0.000000,0.000000,0.000000,0.000000,12401,12386,0,258,0,-2,0,22839,-0.067035,-0.069364,-2.297148,0.000108,-0.000662,0.000040,-58,41,-1003,6,-1,1,0,0,-0.000360,-0.000584,0,0,255,0.000000,0.000000,-7.909212,-10.164253,3.601737,0.009008,-0.029199,0.005516,0.408540,-0.045299,0.016365,-0.911469,-0.001206,0.000253,0.000537,0.000000,0.000000,0.000000,0.000000,2,3,89,4,3,3
0.253000,3,0,0,-1,0,0.000000,0.000000,0.000000,0.000000,0.000000,0.000000,0.000000,0.000000,0.000000,0.000000,0.000000,0.000000,0.000000,0.000000,0.000000,0.000000,0.000000,0.000000,0.000000,0.000000,0.000000,0.000000,0.000000,0.000000,12401,12386,0,7,0,-2,0,22839,-0.067048,-0.069378,-2.297147,-0.000543,0.000389,-0.000396,-58,41,-1003,5,0,1,0,0,-0.000136,-0.000130,0,0,255,0.000000,0.000000,-7.909034,-10.165426,3.602197,0.008885,-0.029320,0.005570,0.408540,-0.045299,0.016365,-0.911469,-0.001206,0.000253,0.000537,0.000000,0.000000,0.000000,0.000000,2,3,89,4,3,3
0.287000,3,0,0,-1,0,0.000000,0.000000,0.000000,0.000000,0.000000,0.000000,0.000000,0.000000,0.000000,0.000000,0.000000,0.000000,0.000000,0.000000,0.000000,0.000000,0.000000,0.000000,0.000000,0.000000,0.000000,0.000000,0.000000,0.000000,12401,12386,0,7,0,-2,0,22839,-0.067024,-0.069381,-2.297179,-0.000481,-0.000784,-0.000467,-58,42,-1003,5,-1,1,0,0,-0.000419,-0.000456,0,0,255,0.000000,0.000000,-7.908855,-10.166597,3.602637,0.008855,-0.029519,0.005604,0.408540,-0.045299,0.016365,-0.911469,-0.001206,0.000253,0.000537,0.000000,0.000000,0.000000,0.000000,2,3,89,4,3,3
0.321000,3,0,0,-1,0,0.000000,0.000000,0.000000,0.000000,0.000000,0.000000,0.000000,0.000000,0.000000,0.000000,0.000000,0.000000,0.000000,0.000000,0.000000,0.000000,0.000000,0.000000,0.000000,0.000000,0.000000,0.000000,0.000000,0.000000,12401,12386,0,6,0,-2,0,22839,-0.067045,-0.069391,-2.297170,-0.001592,-0.001387,0.000498,-58,41,-1003,4,-1,2,0,0,0.000805,0.000552,0,0,255,0.000000,0.000000,-7.908547,-10.168760,3.603441,0.008670,-0.029856,0.005776,0.408540,-0.045299,0.016365,-0.911469,-0.001206,0.000253,0.000537,0.000000,0.000000,0.000000,0.000000,2,3,89,4,3,3
0.355000,3,0,0,-1,0,0.000000,0.000000,0.000000,0.000000,0.000000,0.000000,0.000000,0.000000,0.000000,0.000000,0.000000,0.000000,0.000000,0.000000,0.000000,0.000000,0.000000,0.000000,0.000000,0.000000,0.000000,0.000000,0.000000,0.000000,12401,12386,0,6,0,-3,0,22839,-0.067041,-0.069391,-2.297179,-0.000266,0.000513,-0.000236,-57,41,-1003,6,0,1,0,0,-0.000045,0.000078,0,0,255,0.000000,0.000000,-7.908093,-10.169934,3.603804,0.008718,-0.030095,0.005846,0.408540,-0.045299,0.016365,-0.911469,-0.001206,0.000253,0.000537,0.000000,0.000000,0.000000,0.000000,2,3,89,4,3,3
0.388000,3,0,0,-1,0,0.000000,0.000000,0.000000,0.000000,0.000000,0.000000,0.000000,0.000000,0.000000,0.000000,0.000000,0.000000,0.000000,0.000000,0.000000,0.000000,0.000000,0.000000,0.000000,0.000000,0.000000,0.000000,0.000000,0.000000,12401,12386,0,5,0,-3,0,22839,-0.067018,-0.069369,-2.297190,-0.000173,-0.000336,-0.000263,-57,41,-1003,7,0,1,0,0,-0.000562,-0.001122,0,0,255,0.000000,0.000000,-7.907381,-10.171129,3.604129,0.008949,-0.030101,0.005953,0.408540,-0.045299,0.016365,-0.911469,-0.001206,0.000253,0.000537,0.000000,0.000000,0.000000,0.000000,2,3,89,4,3,3
0.422000,3,0,0,-1,0,0.000000,0.000000,0.000000,0.000000,0.000000,0.000000,0.000000,0.000000,0.000000,0.000000,0.000000,0.000000,0.000000,0.000000,0.000000,0.000000,0.000000,0.000000,0.000000,0.000000,0.000000,0.000000,0.000000,0.000000,12401,12386,0,5,0,-3,0,22839,-0.067009,-0.069354,-2.297179,-0.000453,0.000325,-0.000292,-58,41,-1003,5,0,1,0,0,-0.000623,-0.000074,0,0,255,0.000000,0.000000,-7.906723,-10.172224,3.604428,0.009274,-0.030134,0.005958,0.408540,-0.045299,0.016365,-0.911469,-0.001206,0.000253,0.000537,0.000000,0.000000,0.000000,0.000000,2,3,89,4,3,3
0.456000,3,0,0,-1,0,0.000000,0.000000,0.000000,0.000000,0.000000,0.000000,0.000000,0.000000,0.000000,0.000000,0.000000,0.000000,0.000000,0.000000,0.000000,0.000000,0.000000,0.000000,0.000000,0.000000,0.000000,0.000000,0.000000,0.000000,12401,12386,0,4,0,-3,0,22839,-0.067015,-0.069359,-2.297182,-0.000072,-0.000272,-0.000609,-57,41,-1004,6,0,0,0,0,0.000500,-0.000513,0,0,255,0.000000,0.000000,-7.905463,-10.174462,3.605000,0.009480,-0.030331,0.005934,0.408540,-0.045299,0.016365,-0.911469,-0.001206,0.000253,0.000537,0.000000,0.000000,0.000000,0.000000,2,3,89,4,3,3
0.489000,3,0,0,-1,0,0.000000,0.000000,0.000000,0.000000,0.000000,0.000000,0.000000,0.000000,0.000000,0.000000,0.000000,0.000000,0.000000,0.000000,0.000000,0.000000,0.000000,0.000000,0.000000,0.000000,0.000000,0.000000,0.000000,0.000000,12401,12386,0,4,0,-3,0,22839,-0.066996,-0.069315,-2.297197,0.000256,0.001151,0.000212,-58,41,-1004,6,0,1,0,0,0.000354,-0.000608,0,0,255,0.000000,0.000000,-7.904892,-10.175490,3.605259,0.009681,-0.030409,0.005999,0.408540,-0.045299,0.016365,-0.911469,-0.001206,0.000253,0.000537,0.000000,0.000000,0.000000,0.000000,2,3,89,4,3,3
0.524000,3,0,0,-1,0,0.000000,0.000000,0.000000,0.000000,0.000000,0.000000,0.000000,0.000000,0.000000,0.000000,0.000000,0.000000,0.000000,0.000000,0.000000,0.000000,0.000000,0.000000,0.000000,0.000000,0.000000,0.000000,0.000000,0.000000,12401,12386,0,4,0,-3,0,22838,-0.066974,-0.069300,-2.297208,0.001720,0.001184,-0.000921,-58,41,-1004,8,0,0,0,0,-0.000996,-0.000898,0,0,255,0.000000,0.000000,-7.903774,-10.177646,3.605767,0.009846,-0.030413,0.005832,0.408540,-0.045299,0.016365,-0.911469,-0.001206,0.000253,0.000537,0.000000,0.000000,0.000000,0.000000,2,3,89,4,3,3
0.557000,3,0,0,-1,0,0.000000,0.000000,0.000000,0.000000,0.000000,0.000000,0.000000,0.000000,0.000000,0.000000,0.000000,0.000000,0.000000,0.000000,0.000000,0.000000,0.000000,0.000000,0.000000,0.000000,0.000000,0.000000,0.000000,0.000000,12401,12386,0,4,1,-3,0,22838,-0.066965,-0.069294,-2.297207,0.000253,0.000814,-0.000075,-58,41,-1004,6,0,1,0,0,-0.000196,0.000255,0,0,255,0.000000,0.000000,-7.903111,-10.178745,3.605916,0.010102,-0.030451,0.005783,0.408540,-0.045299,0.016365,-0.911469,-0.001206,0.000253,0.000537,0.000000,0.000000,0.000000,0.000000,2,3,89,4,3,3
0.590000,3,0,0,-1,0,0.000000,0.000000,0.000000,0.000000,0.000000,0.000000,0.000000,0.000000,0.000000,0.000000,0.000000,0.000000,0.000000,0.000000,0.000000,0.000000,0.000000,0.000000,0.000000,0.000000,0.000000,0.000000,0.000000,0.000000,12401,12386,0,3,1,-3,0,22839,-0.066974,-0.069297,-2.297217,-0.000310,-0.000515,-0.000822,-58,41,-1004,5,-2,2,0,0,0.000738,-0.000281,0,0,255,0.000000,0.000000,-7.902266,-10.180103,3.606023,0.010411,-0.030488,0.005744,0.408540,-0.045299,0.016365,-0.911469,-0.001206,0.000253,0.000537,0.000000,0.000000,0.000000,0.000000,2,3,89,4,3,3
0.624000,3,0,0,-1,0,0.000000,0.000000,0.000000,0.000000,0.000000,0.000000,0.000000,0.000000,0.000000,0.000000,0.000000,0.000000,0.000000,0.000000,0.000000,0.000000,0.000000,0.000000,0.000000,0.000000,0.000000,0.000000,0.000000,0.000000,12401,12386,0,3,1,-3,0,22838,-0.066982,-0.069301,-2.297226,-0.000317,-0.000877,-0.000543,-58,41,-1004,6,-1,1,0,0,0.000510,0.000925,0,0,255,0.000000,0.000000,-7.901492,-10.181321,3.606113,0.010792,-0.030584,0.005692,0.408540,-0.045299,0.016365,-0.911469,-0.001206,0.000253,0.000537,0.000000,0.000000,0.000000,0.000000,2,3,89,4,3,3
0.657000,3,0,0,-1,0,0.000000,0.000000,0.000000,0.000000,0.000000,0.000000,0.000000,0.000000,0.000000,0.000000,0.000000,0.000000,0.000000,0.000000,0.000000,0.000000,0.000000,0.000000,0.000000,0.000000,0.000000,0.000000,0.000000,0.000000,12401,12386,0,3,1,-3,0,22838,-0.066971,-0.069295,-2.297230,0.000760,0.000574,-0.000588,-58,41,-1003,7,0,1,0,0,0.000479,0.000185,0,0,255,0.000000,0.000000,-7.899799,-10.183944,3.606315,0.011557,-0.030781,0.005710,0.408540,-0.045299,0.016365,-0.911469,-0.001206,0.000253,0.000537,0.000000,0.000000,0.000000,0.000000,2,3,89,4,3,3
0.690000,3,0,0,-1,0,0.000000,0.000000,0.000000,0.000000,0.000000,0.000000,0.000000,0.000000,0.000000,0.000000,0.000000,0.000000,0.000000,0.000000,0.000000,0.000000,0.000000,0.000000,0.000000,0.000000,0.000000,0.000000,0.000000,0.000000,12401,12386,0,3,1,-3,0,22838,-0.066938,-0.069281,-2.297254,-0.000304,0.000277,-0.001070,-58,41,-1003,7,1,0,0,0,-0.000995,-0.001414,0,0,255,0.000000,0.000000,-7.899117,-10.185089,3.606428,0.011900,-0.030860,0.005644,0.408540,-0.045299,0.016365,-0.911469,-0.001206,0.000253,0.000537,0.000000,0.000000,0.000000,0.000000,2,3,89,4,3,3
0.725000,3,0,0,-1,0,0.000000,0.000000,0.000000,0.000000,0.000000,0.000000,0.000000,0.000000,0.000000,0.000000,0.000000,0.000000,0.000000,0.000000,0.000000,0.000000,0.000000,0.000000,0.000000,0.000000,0.000000,0.000000,0.000000,0.000000,12401,12386,0,3,1,-3,0,22838,-0.066922,-0.069255,-2.297278,0.001405,0.001184,-0.001653,-58,41,-1003,7,0,0,0,0,-0.000012,0.001398,0,0,255,0.000000,0.000000,-7.898474,-10.186173,3.606535,0.012181,-0.031013,0.005657,0.408540,-0.045299,0.016365,-0.911469,-0.001206,0.000253,0.000537,0.000000,0.000000,0.000000,0.000000,2,3,89,4,3,3
0.756000,3,0,0,-1,0,0.000000,0.000000,0.000000,0.000000,0.000000,0.000000,0.000000,0.000000,0.000000,0.000000,0.000000,0.000000,0.000000,0.000000,0.000000,0.000000,0.000000,0.000000,0.000000,0.000000,0.000000,0.000000,0.000000,0.000000,12401,12386,0,3,1,-3,0,22838,-0.066927,-0.069261,-2.297282,-0.000217,-0.000290,-0.000163,-58,41,-1003,6,0,1,0,0,0.000223,0.000061,0,0,255,0.000000,0.000000,-7.897294,-10.188175,3.606752,0.012673,-0.031136,0.005687,0.408540,-0.045299,0.016365,-0.911469,-0.001206,0.000253,0.000537,0.000000,0.000000,0.000000,0.000000,2,3,89,4,3,3
0.786000,3,0,0,-1,0,0.000000,0.000000,0.000000,0.000000,0.000000,0.000000,0.000000,0.000000,0.000000,0.000000,0.000000,0.000000,0.000000,0.000000,0.000000,0.000000,0.000000,0.000000,0.000000,0.000000,0.000000,0.000000,0.000000,0.000000,12401,12386,0,3,1,-3,0,22838,-0.066927,-0.069239,-2.297288,0.000225,0.000927,0.000066,-58,41,-1004,6,0,1,0,0,0.000053,-0.000030,0,0,255,0.000000,0.000000,-7.896418,-10.189159,3.606081,0.013142,-0.030958,0.005267,0.408540,-0.045299,0.016365,-0.911469,-0.001206,0.000253,0.000537,0.000000,0.000000,0.000000,0.000000,2,3,89,4,3,3
0.819000,3,0,0,-1,0,0.000000,0.000000,0.000000,0.000000,0.000000,0.000000,0.000000,0.000000,0.000000,0.000000,0.000000,0.000000,0.000000,0.000000,0.000000,0.000000,0.000000,0.000000,0.000000,0.000000,0.000000,0.000000,0.000000,0.000000,12401,12386,0,5,1,-3,0,22838,-0.066953,-0.069216,-2.297305,0.000219,0.000495,-0.000289,-58,41,-1004,6,-1,1,0,0,-0.000105,0.000078,0,0,255,0.000000,0.000000,-7.895669,-10.189906,3.605429,0.013377,-0.030708,0.005033,0.408540,-0.045299,0.016365,-0.911469,-0.001206,0.000253,0.000537,0.000000,0.000000,0.000000,0.000000,2,3,89,4,3,3
0.853000,3,0,0,-1,0,0.000000,0.000000,0.000000,0.000000,0.000000,0.000000,0.000000,0.000000,0.000000,0.000000,0.000000,0.000000,0.000000,0.000000,0.000000,0.000000,0.000000,0.000000,0.000000,0.000000,0.000000,0.000000,0.000000,0.000000,12401,12386,0,6,1,-3,0,22838,-0.066969,-0.069212,-2.297303,0.000163,-0.000335,-0.000654,-58,41,-1004,6,0,0,0,0,0.000307,0.000298,0,0,255,0.000000,0.000000,-7.894916,-10.190723,3.604843,0.013666,-0.030551,0.004727,0.408540,-0.045299,0.016365,-0.911469,-0.001206,0.000253,0.000537,0.000000,0.000000,0.000000,0.000000,2,3,89,4,3,3
0.888000,3,0,0,-1,0,0.000000,0.000000,0.000000,0.000000,0.000000,0.000000,0.000000,0.000000,0.000000,0.000000,0.000000,0.000000,0.000000,0.000000,0.000000,0.000000,0.000000,0.000000,0.000000,0.000000,0.000000,0.000000,0.000000,0.000000,12401,12386,0,6,1,-3,0,22838,-0.066981,-0.069193,-2.297310,-0.000315,-0.000219,-0.000720,-58,41,-1004,6,0,0,0,0,-0.000072,-0.000439,0,0,255,0.000000,0.000000,-7.893217,-10.192555,3.603544,0.014324,-0.030161,0.004146,0.408540,-0.045299,0.016365,-0.911469,-0.001206,0.000253,0.000537,0.000000,0.000000,0.000000,0.000000,2,3,89,4,3,3
0.921000,3,0,0,-1,0,0.000000,0.000000,0.000000,0.000000,0.000000,0.000000,0.000000,0.000000,0.000000,0.000000,0.000000,0.000000,0.000000,0.000000,0.000000,0.000000,0.000000,0.000000,0.000000,0.000000,0.000000,0.000000,0.000000,0.000000,12401,12386,0,7,1,-3,0,22838,-0.067003,-0.069174,-2.297321,-0.001512,-0.001098,-0.000048,-58,41,-1004,6,0,0,0,0,-0.000189,-0.000564,0,0,255,0.000000,0.000000,-7.892658,-10.193111,3.603075,0.014569,-0.030154,0.003905,0.408540,-0.045299,0.016365,-0.911469,-0.001206,0.000253,0.000537,0.000000,0.000000,0.000000,0.000000,2,3,89,4,3,3
0.954000,3,0,0,-1,0,0.000000,0.000000,0.000000,0.000000,0.000000,0.000000,0.000000,0.000000,0.000000,0.000000,0.000000,0.000000,0.000000,0.000000,0.000000,0.000000,0.000000,0.000000,0.000000,0.000000,0.000000,0.000000,0.000000,0.000000,12401,12386,0,7,1,-3,0,22838,-0.067003,-0.069172,-2.297322,0.000763,-0.000166,-0.000660,-57,41,-1004,7,0,0,0,0,-0.000236,-0.000721,0,0,255,0.000000,0.000000,-7.892007,-10.193895,3.602673,0.014782,-0.030091,0.003751,0.408540,-0.045299,0.016365,-0.911469,-0.001206,0.000253,0.000537,0.000000,0.000000,0.000000,0.000000,2,3,89,4,3,3
0.987000,3,0,0,-1,0,0.000000,0.000000,0.000000,0.000000,0.000000,0.000000,0.000000,0.000000,0.000000,0.000000,0.000000,0.000000,0.000000,0.000000,0.000000,0.000000,0.000000,0.000000,0.000000,0.000000,0.000000,0.000000,0.000000,0.000000,12401,12386,0,8,1,-3,0,22838,-0.067013,-0.069151,-2.297330,0.000806,0.002159,-0.000425,-57,41,-1004,7,1,1,0,0,0.000809,-0.000089,0,0,255,0.000000,0.000000,-7.890850,-10.195512,3.601859,0.015021,-0.030030,0.003385,0.408540,-0.045299,0.016365,-0.911469,-0.001206,0.000253,0.000537,0.000000,0.000000,0.000000,0.000000,2,3,89,4,3,3
1.021000,3,0,0,-1,0,0.000000,0.000000,0.000000,0.000000,0.000000,0.000000,0.000000,0.000000,0.000000,0.000000,0.000000,0.000000,0.000000,0.000000,0.000000,0.000000,0.000000,0.000000,0.000000,0.000000,0.000000,0.000000,0.000000,0.000000,12401,12386,0,9,1,-3,0,22838,-0.067050,-0.069175,-2.297312,-0.001216,-0.001659,0.000379,-58,41,-1004,5,-1,1,0,0,-0.000224,0.000559,0,0,255,0.000000,0.000000,-7.890306,-10.196676,3.601098,0.014995,-0.029982,0.003084,0.408540,-0.045299,0.016365,-0.911469,-0.001206,0.000253,0.000537,0.000000,0.000000,0.000000,0.000000,2,3,89,4,3,3
1.054000,3,0,0,-1,0,0.000000,0.000000,0.000000,0.000000,0.000000,0.000000,0.000000,0.000000,0.000000,0.000000,0.000000,0.000000,0.000000,0.000000,0.000000,0.000000,0.000000,0.000000,0.000000,0.000000,0.000000,0.000000,0.000000,0.000000,12401,12386,0,9,1,-2,0,22838,-0.067063,-0.069192,-2.297307,0.000135,0.000220,-0.000596,-57,41,-1004,6,0,1,0,0,0.000535,0.000650,0,0,255,0.000000,0.000000,-7.889901,-10.197551,3.600657,0.015013,-0.030040,0.002813,0.408540,-0.045299,0.016365,-0.911469,-0.001206,0.000253,0.000537,0.000000,0.000000,0.000000,0.000000,2,3,217,4,3,3
1.088000,3,0,0,-1,0,0.000000,0.000000,0.000000,0.000000,0.000000,0.000000,0.000000,0.000000,0.000000,0.000000,0.000000,0.000000,0.000000,0.000000,0.000000,0.000000,0.000000,0.000000,0.000000,0.000000,0.000000,0.000000,0.000000,0.000000,12401,12386,0,10,1,-3,0,22838,-0.067076,-0.069195,-2.297305,-0.000406,0.000584,0.000310,-57,41,-1004,6,0,1,0,0,0.000746,0.000663,0,0,255,0.000000,0.000000,-7.889062,-10.199389,3.599879,0.014821,-0.030034,0.002468,0.408540,-0.045299,0.016365,-0.911469,-0.001206,0.000253,0.000537,0.000000,0.000000,0.000000,0.000000,2,3,217,4,3,3
1.121000,3,0,0,-1,0,0.000000,0.000000,0.000000,0.000000,0.000000,0.000000,0.000000,0.000000,0.000000,0.000000,0.000000,0.000000,0.000000,0.000000,0.000000,0.000000,0.000000,0.000000,0.000000,0.000000,0.000000,0.000000,0.000000,0.000000,12401,12386,0,10,1,-3,0,22838,-0.067112,-0.069217,-2.297313,-0.000072,0.000181,-0.001416,-57,41,-1004,5,-1,2,0,0,0.000476,0.000013,0,0,255,0.000000,0.000000,-7.888669,-10.200266,3.599533,0.014745,-0.030054,0.002352,0.408540,-0.045299,0.016365,-0.911469,-0.001206,0.000253,0.000537,0.000000,0.000000,0.000000,0.000000,2,3,217,4,3,3
1.154000,3,0,0,-1,0,0.000000,0.000000,0.000000,0.000000,0.000000,0.000000,0.000000,0.000000,0.000000,0.000000,0.000000,0.000000,0.000000,0.000000,0.000000,0.000000,0.000000,0.000000,0.000000,0.000000,0.000000,0.000000,0.000000,0.000000,12401,12386,0,11,1,-2,0,22838,-0.067116,-0.069206,-2.297328,-0.000062,0.000706,-0.001326,-58,41,-1003,6,0,0,0,0,0.000709,0.000136,0,0,255,0.000000,0.000000,-7.888286,-10.201129,3.599212,0.014706,-0.029882,0.002281,0.408540,-0.045299,0.016365,-0.911469,-0.001206,0.000253,0.000537,0.000000,0.000000,0.000000,0.000000,2,3,217,4,3,3
1.188000,3,0,0,-1,0,0.000000,0.000000,0.000000,0.000000,0.000000,0.000000,0.000000,0.000000,0.000000,0.000000,0.000000,0.000000,0.000000,0.000000,0.000000,0.000000,0.000000,0.000000,0.000000,0.000000,0.000000,0.000000,0.000000,0.000000,12401,12386,0,12,1,-2,0,22838,-0.067147,-0.069222,-2.297332,-0.001569,-0.001130,-0.000230,-58,41,-1004,5,-1,1,0,0,0.001355,0.000865,0,0,255,0.000000,0.000000,-7.887961,-10.202903,3.597975,0.014102,-0.029547,0.001876,0.408540,-0.045299,0.016365,-0.911469,-0.001206,0.000253,0.000537,0.000000,0.000000,0.000000,0.000000,2,3,217,4,3,3
1.221000,3,0,0,-1,0,0.000000,0.000000,0.000000,0.000000,0.000000,0.000000,0.000000,0.000000,0.000000,0.000000,0.000000,0.000000,0.000000,0.000000,0.000000,0.000000,0.000000,0.000000,0.000000,0.000000,0.000000,0.000000,0.000000,0.000000,12401,12386,0,12,1,-2,0,22838,-0.067163,-0.069222,-2.297344,-0.000011,0.000035,-0.000959,-58,41,-1004,6,0,0,0,0,0.000132,-0.000580,0,0,255,0.000000,0.000000,-7.887903,-10.203714,3.597313,0.013749,-0.029284,0.001599,0.408540,-0.045299,0.016365,-0.911469,-0.001206,0.000253,0.000537,0.000000,0.000000,0.000000,0.000000,2,3,217,4,3,3
1.255000,3,0,0,-1,0,0.000000,0.000000,0.000000,0.000000,0.000000,0.000000,0.000000,0.000000,0.000000,0.000000,0.000000,0.000000,0.000000,0.000000,0.000000,0.000000,0.000000,0.000000,0.000000,0.000000,0.000000,0.000000,0.000000,0.000000,12401,12386,0,13,1,-2,0,22838,-0.067187,-0.069226,-2.297350,-0.000134,-0.000275,-0.000393,-58,41,-1004,6,0,1,0,0,-0.001241,-0.001534,0,0,255,0.000000,0.000000,-7.887886,-10.204418,3.596673,0.013391,-0.029085,0.001335,0.408540,-0.045299,0.016365,-0.911469,-0.001206,0.000253,0.000537,0.000000,0.000000,0.000000,0.000000,2,3,217,4,3,3
1.288000,3,0,0,-1,0,0.000000,0.000000,0.000000,0.000000,0.000000,0.000000,0.000000,0.000000,0.000000,0.000000,0.000000,0.000000,0.000000,0.000000,0.000000,0.000000,0.000000,0.000000,0.000000,0.000000,0.000000,0.000000,0.000000,0.000000,12401,12386,0,14,1,-2,0,22838,-0.067190,-0.069227,-2.297343,0.001405,0.002336,-0.000232,-58,41,-1004,7,1,1,0,0,-0.000569,-0.000593,0,0,255,0.000000,0.000000,-7.887817,-10.205222,3.596081,0.013056,-0.029038,0.001027,0.408540,-0.045299,0.016365,-0.911469,-0.001206,0.000253,0.000537,0.000000,0.000000,0.000000,0.000000,2,3,217,4,3,3
1.322000,3,0,0,-1,0,0.000000,0.000000,0.000000,0.000000,0.000000,0.000000,0.000000,0.000000,0.000000,0.000000,0.000000,0.000000,0.000000,0.000000,0.000000,0.000000,0.000000,0.000000,0.000000,0.000000,0.000000,0.000000,0.000000,0.000000,12401,12386,0,14,1,-2,0,22838,-0.067204,-0.069230,-2.297344,0.000567,0.000650,-0.000482,-58,42,-1004,7,0,1,0,0,0.000352,-0.000148,0,0,255,0.000000,0.000000,-7.887703,-10.206732,3.595014,0.012572,-0.028788,0.000610,0.408540,-0.045299,0.016365,-0.911469,-0.001206,0.000253,0.000537,0.000000,0.000000,0.000000,0.000000,2,3,217,4,3,3
1.356000,3,0,0,-1,0,0.000000,0.000000,0.000000,0.000000,0.000000,0.000000,0.000000,0.000000,0.000000,0.000000,0.000000,0.000000,0.000000,0.000000,0.000000,0.000000,0.000000,0.000000,0.000000,0.000000,0.000000,0.000000,0.000000,0.000000,12401,12386,0,16,1,-2,0,22838,-0.067232,-0.069235,-2.297342,-0.000297,0.000170,-0.000595,-58,41,-1004,6,0,1,0,0,-0.000197,0.000401,0,0,255,0.000000,0.000000,-7.887595,-10.207583,3.594536,0.012365,-0.028703,0.000413,0.408540,-0.045299,0.016365,-0.911469,-0.001206,0.000253,0.000537,0.000000,0.000000,0.000000,0.000000,2,3,217,4,3,3
1.389000,3,0,0,-1,0,0.000000,0.000000,0.000000,0.000000,0.000000,0.000000,0.000000,0.000000,0.000000,0.000000,0.000000,0.000000,0.000000,0.000000,0.000000,0.000000,0.000000,0.000000,0.000000,0.000000,0.000000,0.000000,0.000000,0.000000,12401,12386,0,17,1,-2,0,22838,-0.067256,-0.069240,-2.297340,-0.000667,-0.000668,-0.000531,-58,41,-1004,5,-1,1,0,0,0.000242,0.000532,0,0,255,0.000000,0.000000,-7.887372,-10.208185,3.593616,0.012096,-0.028340,0.000089,0.408540,-0.045299,0.016365,-0.911469,-0.001206,0.000253,0.000537,0.000000,0.000000,0.000000,0.000000,2,3,217,4,3,3
1.423000,3,0,0,-1,0,0.000000,0.000000,0.000000,0.000000,0.000000,0.000000,0.000000,0.000000,0.000000,0.000000,0.000000,0.000000,0.000000,0.000000,0.000000,0.000000,0.000000,0.000000,0.000000,0.000000,0.000000,0.000000,0.000000,0.000000,12401,12386,0,18,1,-2,0,22838,-0.067267,-0.069238,-2.297336,0.000047,0.000068,-0.000675,-58,41,-1004,6,0,0,0,0,0.000430,-0.000128,0,0,255,0.000000,0.000000,-7.886873,-10.209592,3.591588,0.011824,-0.027454,-0.000618,0.408540,-0.045299,0.016365,-0.911469,-0.001206,0.000253,0.000537,0.000000,0.000000,0.000000,0.000000,2,3,217,4,3,3
1.456000,3,0,0,-1,0,0.000000,0.000000,0.000000,0.000000,0.000000,0.000000,0.000000,0.000000,0.000000,0.000000,0.000000,0.000000,0.000000,0.000000,0.000000,0.000000,0.000000,0.000000,0.000000,0.000000,0.000000,0.000000,0.000000,0.000000,12401,12386,0,19,1,-2,0,22838,-0.067275,-0.069206,-2.297334,0.000025,-0.000027,-0.000159,-58,41,-1004,7,1,0,0,0,0.000129,-0.000826,0,0,255,0.000000,0.000000,-7.886648,-10.210166,3.591214,0.011738,-0.027228,-0.000813,0.408540,-0.045299,0.016365,-0.911469,-0.001206,0.000253,0.000537,0.000000,0.000000,0.000000,0.000000,2,3,217,4,3,3
1.490000,3,0,0,-1,0,0.000000,0.000000,0.000000,0.000000,0.000000,0.000000,0.000000,0.000000,0.000000,0.000000,0.000000,0.000000,0.000000,0.000000,0.000000,0.000000,0.000000,0.000000,0.000000,0.000000,0.000000,0.000000,0.000000,0.000000,12401,12386,0,20,1,-2,0,22838,-0.067298,-0.069228,-2.297310,-0.000758,-0.002175,0.001171,-58,41,-1004,5,-2,2,0,0,0.000267,-0.000088,0,0,255,0.000000,0.000000,-7.886426,-10.210788,3.590513,0.011638,-0.026995,-0.001084,0.408540,-0.045299,0.016365,-0.911469,-0.001206,0.000253,0.000537,0.000000,0.000000,0.000000,0.000000,2,3,217,4,3,3
1.523000,3,0,0,-1,0,0.000000,0.000000,0.000000,0.000000,0.000000,0.000000,0.000000,0.000000,0.000000,0.000000,0.000000,0.000000,0.000000,0.000000,0.000000,0.000000,0.000000,0.000000,0.000000,0.000000,0.000000,0.000000,0.000000,0.000000,12401,12386,0,21,1,-2,0,22838,-0.067298,-0.069203,-2.297307,-0.000480,0.000377,0.000192,-58,41,-1004,6,0,1,0,0,0.000435,0.000190,0,0,255,0.000000,0.000000,-7.886004,-10.212048,3.588967,0.011234,-0.026400,-0.001588,0.408540,-0.045299,0.016365,-0.911469,-0.001206,0.000253,0.000537,0.000000,0.000000,0.000000,0.000000,2,3,217,4,3,3
1.557000,3,0,0,-1,0,0.000000,0.000000,0.000000,0.000000,0.000000,0.000000,0.000000,0.000000,0.000000,0.000000,0.000000,0.000000,0.000000,0.000000,0.000000,0.000000,0.000000,0.000000,0.000000,0.000000,0.000000,0.000000,0.000000,0.000000,12401,12386,0,22,1,-2,0,22838,-0.067294,-0.069198,-2.297306,0.000846,0.000389,-0.001243,-57,41,-1004,6,-1,1,0,0,0.000271,0.000634,0,0,255,0.000000,0.000000,-7.885827,-10.212586,3.588417,0.011024,-0.026225,-0.001802,0.408540,-0.045299,0.016365,-0.911469,-0.001206,0.000253,0.000537,0.000000,0.000000,0.000000,0.000000,2,3,217,4,3,3
1.592000,3,0,0,-1,0,0.000000,0.000000,0.000000,0.000000,0.000000,0.000000,0.000000,0.000000,0.000000,0.000000,0.000000,0.000000,0.000000,0.000000,0.000000,0.000000,0.000000,0.000000,0.000000,0.000000,0.000000,0.000000,0.000000,0.000000,12401,12386,0,22,1,-2,0,22838,-0.067306,-0.069179,-2.297319,0.001352,0.001255,-0.000957,-58,41,-1004,7,0,0,0,0,-0.000821,-0.000820,0,0,255,0.000000,0.000000,-7.885752,-10.213006,3.587857,0.010580,-0.025906,-0.001938,0.408540,-0.045299,0.016365,-0.911469,-0.001206,0.000253,0.000537,0.000000,0.000000,0.000000,0.000000,2,3,217,4,3,3
1.627000,3,0,0,-1,0,0.000000,0.000000,0.000000,0.000000,0.000000,0.000000,0.000000,0.000000,0.000000,0.000000,0.000000,0.000000,0.000000,0.000000,0.000000,0.000000,0.000000,0.000000,0.000000,0.000000,0.000000,0.000000,0.000000,0.000000,12401,12386,0,23,0,-2,0,22838,-0.067333,-0.069180,-2.297315,-0.000454,-0.000760,-0.000351,-58,41,-1004,6,-1,1,0,0,0.000150,0.000099,0,0,255,0.000000,0.000000,-7.885834,-10.213524,3.586756,0.009561,-0.024473,-0.002322,0.408540,-0.045299,0.016365,-0.911469,-0.001206,0.000253,0.000537,0.000000,0.000000,0.000000,0.000000,2,3,217,4,3,3
1.662000,3,0,0,-1,0,0.000000,0.000000,0.000000,0.000000,0.000000,0.000000,0.000000,0.000000,0.000000,0.000000,0.000000,0.000000,0.000000,0.000000,0.000000,0.000000,0.000000,0.000000,0.000000,0.000000,0.000000,0.000000,0.000000,0.000000,12401,12386,0,24,0,-2,0,22838,-0.067368,-0.069173,-2.297321,0.000192,-0.000346,-0.000475,-58,41,-1004,6,0,1,0,0,0.001041,0.001543,0,0,255,0.000000,0.000000,-7.885881,-10.213770,3.586287,0.009125,-0.023935,-0.002485,0.408540,-0.045299,0.016365,-0.911469,-0.001206,0.000253,0.000537,0.000000,0.000000,0.000000,0.000000,2,3,217,4,3,3
1.696000,3,0,0,-1,0,0.000000,0.000000,0.000000,0.000000,0.000000,0.000000,0.000000,0.000000,0.000000,0.000000,0.000000,0.000000,0.000000,0.000000,0.000000,0.000000,0.000000,0.000000,0.000000,0.000000,0.000000,0.000000,0.000000,0.000000,12401,12386,0,24,0,-2,0,22838,-0.067395,-0.069188,-2.297314,-0.000685,-0.001681,0.000185,-58,41,-1004,5,-2,1,0,0,0.000304,0.000243,0,0,255,0.000000,0.000000,-7.885974,-10.214278,3.585428,0.008319,-0.022783,-0.002894,0.408540,-0.045299,0.016365,-0.911469,-0.001206,0.000253,0.000537,0.000000,0.000000,0.000000,0.000000,2,3,217,4,3,3
1.731000,3,0,0,-1,0,0.000000,0.000000,0.000000,0.000000,0.000000,0.000000,0.000000,0.000000,0.000000,0.000000,0.000000,0.000000,0.000000,0.000000,0.000000,0.000000,0.000000,0.000000,0.000000,0.000000,0.000000,0.000000,0.000000,0.000000,12401,12386,0,24,0,-2,0,22838,-0.067402,-0.069167,-2.297328,0.000566,0.001632,-0.000893,-58,41,-1004,7,1,0,0,0,0.000414,-0.000259,0,0,255,0.000000,0.000000,-7.886009,-10.214566,3.585031,0.008108,-0.022433,-0.003075,0.408540,-0.045299,0.016365,-0.911469,-0.001206,0.000253,0.000537,0.000000,0.000000,0.000000,0.000000,2,3,217,4,3,3
1.765000,3,0,0,-1,0,0.000000,0.000000,0.000000,0.000000,0.000000,0.000000,0.000000,0.000000,0.000000,0.000000,0.000000,0.000000,0.000000,0.000000,0.000000,0.000000,0.000000,0.000000,0.000000,0.000000,0.000000,0.000000,0.000000,0.000000,12401,12386,0,25,0,-2,0,22838,-0.067437,-0.069167,-2.297347,-0.000167,0.000429,0.000166,-58,42,-1004,6,0,1,0,0,-0.000054,-0.000376,0,0,255,0.000000,0.000000,-7.886073,-10.214768,3.584680,0.007860,-0.022031,-0.003176,0.408540,-0.045299,0.016365,-0.911469,-0.001206,0.000253,0.000537,0.000000,0.000000,0.000000,0.000000,2,3,217,4,3,3
1.800000,3,0,0,-1,0,0.000000,0.000000,0.000000,0.000000,0.000000,0.000000,0.000000,0.000000,0.000000,0.000000,0.000000,0.000000,0.000000,0.000000,0.000000,0.000000,0.000000,0.000000,0.000000,0.000000,0.000000,0.000000,0.000000,0.000000,12401,12386,0,26,0,-2,0,22838,-0.067449,-0.069150,-2.297357,-0.001308,-0.001098,-0.000355,-58,41,-1004,5,-1,1,0,0,0.000745,0.001232,0,0,255,0.000000,0.000000,-7.885239,-10.214780,3.583791,0.008003,-0.020662,-0.003462,0.408540,-0.045299,0.016365,-0.911469,-0.001206,0.000253,0.000537,0.000000,0.000000,0.000000,0.000000,2,3,217,4,3,3
1.835000,3,0,0,-1,0,0.000000,0.000000,0.000000,0.000000,0.000000,0.000000,0.000000,0.000000,0.000000,0.000000,0.000000,0.000000,0.000000,0.000000,0.000000,0.000000,0.000000,0.000000,0.000000,0.000000,0.000000,0.000000,0.000000,0.000000,12401,12386,0,26,0,-2,0,22838,-0.067446,-0.069099,-2.297379,0.000327,-0.000188,0.000115,-58,41,-1004,6,0,0,0,0,-0.000735,-0.000837,0,0,255,0.000000,0.000000,-7.884636,-10.214789,3.583419,0.008159,-0.019924,-0.003567,0.408540,-0.045299,0.016365,-0.911469,-0.001206,0.000253,0.000537,0.000000,0.000000,0.000000,0.000000,2,3,217,4,3,3
1.870000,3,0,0,-1,0,0.000000,0.000000,0.000000,0.000000,0.000000,0.000000,0.000000,0.000000,0.000000,0.000000,0.000000,0.000000,0.000000,0.000000,0.000000,0.000000,0.000000,0.000000,0.000000,0.000000,0.000000,0.000000,0.000000,0.000000,12401,12386,0,27,0,-1,0,22837,-0.067448,-0.069068,-2.297390,-0.000510,0.000451,-0.000408,-57,41,-1003,6,0,1,0,0,-0.000259,-0.000577,0,0,255,0.000000,0.000000,-7.884272,-10.214972,3.583224,0.008126,-0.019573,-0.003628,0.408540,-0.045299,0.016365,-0.911469,-0.001206,0.000253,0.000537,0.000000,0.000000,0.000000,0.000000,2,3,217,4,3,3
1.904000,3,0,0,-1,0,0.000000,0.000000,0.000000,0.000000,0.000000,0.000000,0.000000,0.000000,0.000000,0.000000,0.000000,0.000000,0.000000,0.000000,0.000000,0.000000,0.000000,0.000000,0.000000,0.000000,0.000000,0.000000,0.000000,0.000000,12401,12386,0,27,0,-1,0,22837,-0.067461,-0.069036,-2.297404,-0.000879,0.000415,-0.000335,-58,41,-1004,5,0,1,0,0,0.001208,0.000058,0,0,255,0.000000,0.000000,-7.882990,-10.214869,3.582505,0.008455,-0.018041,-0.003814,0.408540,-0.045299,0.016365,-0.911469,-0.001206,0.000253,0.000537,0.000000,0.000000,0.000000,0.000000,2,3,217,4,3,3
1.939000,3,0,0,-1,0,0.000000,0.000000,0.000000,0.000000,0.000000,0.000000,0.000000,0.000000,0.000000,0.000000,0.000000,0.000000,0.000000,0.000000,0.000000,0.000000,0.000000,0.000000,0.000000,0.000000,0.000000,0.000000,0.000000,0.000000,12401,12386,0,27,0,-1,0,22837,-0.067480,-0.069025,-2.297417,-0.001045,-0.000755,-0.000110,-58,41,-1004,6,0,1,0,0,0.000221,-0.000085,0,0,255,0.000000,0.000000,-7.882538,-10.214808,3.582255,0.008626,-0.017680,-0.003764,0.408540,-0.045299,0.016365,-0.911469,-0.001206,0.000253,0.000537,0.000000,0.000000,0.000000,0.000000,2,3,217,4,3,3
1.974000,3,0,0,-1,0,0.000000,0.000000,0.000000,0.000000,0.000000,0.000000,0.000000,0.000000,0.000000,0.000000,0.000000,0.000000,0.000000,0.000000,0.000000,0.000000,0.000000,0.000000,0.000000,0.000000,0.000000,0.000000,0.000000,0.000000,12401,12386,0,28,0,-1,0,22837,-0.067474,-0.069010,-2.297429,0.000238,0.000500,-0.000316,-58,41,-1003,6,0,1,0,0,-0.000365,-0.000800,0,0,255,0.000000,0.000000,-7.882063,-10.214848,3.582032,0.008676,-0.017147,-0.003759,0.408540,-0.045299,0.016365,-0.911469,-0.001206,0.000253,0.000537,0.000000,0.000000,0.000000,0.000000,2,3,217,4,3,3
2.008000,3,0,0,-1,0,0.000000,0.000000,0.000000,0.000000,0.000000,0.000000,0.000000,0.000000,0.000000,0.000000,0.000000,0.000000,0.000000,0.000000,0.000000,0.000000,0.000000,0.000000,0.000000,0.000000,0.000000,0.000000,0.000000,0.000000,12401,12386,0,28,0,-1,0,22837,-0.067468,-0.068980,-2.297447,0.000026,0.001300,-0.001312,-58,41,-1004,6,0,0,0,0,0.000172,-0.001041,0,0,255,0.000000,0.000000,-7.880978,-10.215113,3.581975,0.008948,-0.016312,-0.003683,0.408540,-0.045299,0.016365,-0.911469,-0.001206,0.000253,0.000537,0.000000,0.000000,0.000000,0.000000,2,3,217,4,3,3
2.043000,3,0,0,-1,0,0.000000,0.000000,0.000000,0.000000,0.000000,0.000000,0.000000,0.000000,0.000000,0.000000,0.000000,0.000000,0.000000,0.000000,0.000000,0.000000,0.000000,0.000000,0.000000,0.000000,0.000000,0.000000,0.000000,0.000000,12401,12386,0,27,0,-1,0,22837,-0.067451,-0.068954,-2.297477,0.000143,0.000203,-0.000618,-57,41,-1004,6,0,1,0,0,0.000151,0.000464,0,0,255,0.000000,0.000000,-7.880238,-10.215384,3.582476,0.009171,-0.015935,-0.003477,0.408540,-0.045299,0.016365,-0.911469,-0.001206,0.000253,0.000537,0.000000,0.000000,0.000000,0.000000,2,3,217,4,3,3
2.077000,3,0,0,-1,0,0.000000,0.000000,0.000000,0.000000,0.000000,0.000000,0.000000,0.000000,0.000000,0.000000,0.000000,0.000000,0.000000,0.000000,0.000000,0.000000,0.000000,0.000000,0.000000,0.000000,0.000000,0.000000,0.000000,0.000000,12401,12386,0,26,0,-1,0,22837,-0.067450,-0.068957,-2.297481,0.000091,-0.000237,-0.001075,-57,41,-1004,6,0,0,0,0,0.000264,0.000066,0,0,255,0.000000,0.000000,-7.879297,-10.215610,3.583223,0.009529,-0.015566,-0.003240,0.408540,-0.045299,0.016365,-0.911469,-0.001206,0.000253,0.000537,0.000000,0.000000,0.000000,0.000000,2,3,217,4,3,3
2.112000,3,0,0,-1,0,0.000000,0.000000,0.000000,0.000000,0.000000,0.000000,0.000000,0.000000,0.000000,0.000000,0.000000,0.000000,0.000000,0.000000,0.000000,0.000000,0.000000,0.000000,0.000000,0.000000,0.000000,0.000000,0.000000,0.000000,12401,12386,0,25,0,-1,0,22837,-0.067464,-0.068951,-2.297491,-0.001473,0.000157,-0.000156,-58,41,-1004,5,0,1,0,0,0.000417,0.000720,0,0,255,0.000000,0.000000,-7.878028,-10.216111,3.584064,0.009996,-0.014887,-0.002996,0.408540,-0.045299,0.016365,-0.911469,-0.001206,0.000253,0.000537,0.000000,0.000000,0.000000,0.000000,2,3,217,4,3,3
2.147000,3,0,0,-1,0,0.000000,0.000000,0.000000,0.000000,0.000000,0.000000,0.000000,0.000000,0.000000,0.000000,0.000000,0.000000,0.000000,0.000000,0.000000,0.000000,0.000000,0.000000,0.000000,0.000000,0.000000,0.000000,0.000000,0.000000,12401,12386,0,25,1,-1,0,22837,-0.067450,-0.068919,-2.297503,0.000157,0.000373,-0.000471,-58,41,-1004,6,0,1,0,0,-0.000108,-0.000786,0,0,255,0.000000,0.000000,-7.877419,-10.216373,3.584433,0.010209,-0.014639,-0.002995,0.408540,-0.045299,0.016365,-0.911469,-0.001206,0.000253,0.000537,0.000000,0.000000,0.000000,0.000000,2,3,217,4,3,3
2.181000,3,0,0,-1,0,0.000000,0.000000,0.000000,0.000000,0.000000,0.000000,0.000000,0.000000,0.000000,0.000000,0.000000,0.000000,0.000000,0.000000,0.000000,0.000000,0.000000,0.000000,0.000000,0.000000,0.000000,0.000000,0.000000,0.000000,12401,12386,0,24,1,-1,0,22837,-0.067463,-0.068921,-2.297513,-0.000720,0.000010,-0.000495,-58,41,-1004,5,0,1,0,0,0.000868,0.000168,0,0,255,0.000000,0.000000,-7.876142,-10.216961,3.585338,0.010693,-0.014122,-0.002747,0.408540,-0.045299,0.016365,-0.911469,-0.001206,0.000253,0.000537,0.000000,0.000000,0.000000,0.000000,2,3,217,4,3,3
2.216000,3,0,0,-1,0,0.000000,0.000000,0.000000,0.000000,0.000000,0.000000,0.000000,0.000000,0.000000,0.000000,0.000000,0.000000,0.000000,0.000000,0.000000,0.000000,0.000000,0.000000,0.000000,0.000000,0.000000,0.000000,0.000000,0.000000,12401,12386,0,23,1,-1,0,22837,-0.067460,-0.068912,-2.297514,-0.000225,0.000416,-0.000537,-58,41,-1004,7,0,1,0,0,-0.000367,-0.000808,0,0,255,0.000000,0.000000,-7.875407,-10.217274,3.586071,0.010962,-0.013843,-0.002453,0.408540,-0.045299,0.016365,-0.911469,-0.001206,0.000253,0.000537,0.000000,0.000000,0.000000,0.000000,2,3,217,4,3,3
2.250000,3,0,0,-1,0,0.000000,0.000000,0.000000,0.000000,0.000000,0.000000,0.000000,0.000000,0.000000,0.000000,0.000000,0.000000,0.000000,0.000000,0.000000,0.000000,0.000000,0.000000,0.000000,0.000000,0.000000,0.000000,0.000000,0.000000,12401,12386,0,22,1,-1,0,22837,-0.067457,-0.068889,-2.297523,0.000132,0.001062,-0.000403,-58,41,-1004,6,0,1,0,0,0.000471,0.000168,0,0,255,0.000000,0.000000,-7.874714,-10.217565,3.586756,0.011133,-0.013482,-0.002227,0.408540,-0.045299,0.016365,-0.911469,-0.001206,0.000253,0.000537,0.000000,0.000000,0.000000,0.000000,2,3,217,4,3,3
2.285000,3,0,0,-1,0,0.000000,0.000000,0.000000,0.000000,0.000000,0.000000,0.000000,0.000000,0.000000,0.000000,0.000000,0.000000,0.000000,0.000000,0.000000,0.000000,0.000000,0.000000,0.000000,0.000000,0.000000,0.000000,0.000000,0.000000,12401,12386,0,21,1,-1,0,22837,-0.067464,-0.068879,-2.297517,-0.000115,-0.000115,-0.000649,-58,41,-1004,6,0,0,0,0,0.000072,-0.000673,0,0,255,0.000000,0.000000,-7.873418,-10.218118,3.588025,0.011358,-0.012796,-0.001987,0.408540,-0.045299,0.016365,-0.911469,-0.001206,0.000253,0.000537,0.000000,0.000000,0.000000,0.000000,2,3,217,4,3,3
2.320000,3,0,0,-1,0,0.000000,0.000000,0.000000,0.000000,0.000000,0.000000,0.000000,0.000000,0.000000,0.000000,0.000000,0.000000,0.000000,0.000000,0.000000,0.000000,0.000000,0.000000,0.000000,0.000000,0.000000,0.000000,0.000000,0.000000,12401,12386,0,21,1,-1,0,22837,-0.067480,-0.068863,-2.297520,0.000129,0.000169,-0.001284,-58,41,-1004,6,0,0,0,0,0.000356,-0.000268,0,0,255,0.000000,0.000000,-7.872811,-10.218385,3.588591,0.011464,-0.012594,-0.001714,0.408540,-0.045299,0.016365,-0.911469,-0.001206,0.000253,0.000537,0.000000,0.000000,0.000000,0.000000,2,3,217,4,3,3
2.354000,3,0,0,-1,0,0.000000,0.000000,0.000000,0.000000,0.000000,0.000000,0.000000,0.000000,0.000000,0.000000,0.000000,0.000000,0.000000,0.000000,0.000000,0.000000,0.000000,0.000000,0.000000,0.000000,0.000000,0.000000,0.000000,0.000000,12401,12386,0,20,1,-1,0,22837,-0.067479,-0.068866,-2.297507,-0.000136,-0.000187,0.000429,-57,41,-1004,6,0,2,0,0,-0.000103,0.000424,0,0,255,0.000000,0.000000,-7.872195,-10.218682,3.589113,0.011449,-0.012220,-0.001651,0.408540,-0.045299,0.016365,-0.911469,-0.001206,0.000253,0.000537,0.000000,0.000000,0.000000,0.000000,2,3,217,4,3,3
2.388000,3,0,0,-1,0,0.000000,0.000000,0.000000,0.000000,0.000000,0.000000,0.000000,0.000000,0.000000,0.000000,0.000000,0.000000,0.000000,0.000000,0.000000,0.000000,0.000000,0.000000,0.000000,0.000000,0.000000,0.000000,0.000000,0.000000,12401,12386,0,19,1,-1,0,22837,-0.067484,-0.068879,-2.297509,-0.000107,-0.000588,-0.000553,-58,41,-1004,6,-1,1,0,0,-0.000063,0.000296,0,0,255,0.000000,0.000000,-7.871919,-10.219097,3.590281,0.010810,-0.011512,-0.001392,0.408540,-0.045299,0.016365,-0.911469,-0.001206,0.000253,0.000537,0.000000,0.000000,0.000000,0.000000,2,3,217,4,3,3
2.423000,3,0,0,-1,0,0.000000,0.000000,0.000000,0.000000,0.000000,0.000000,0.000000,0.000000,0.000000,0.000000,0.000000,0.000000,0.000000,0.000000,0.000000,0.000000,0.000000,0.000000,0.000000,0.000000,0.000000,0.000000,0.000000,0.000000,12401,12386,0,18,0,-1,0,22837,-0.067522,-0.068892,-2.297530,-0.000759,0.002143,-0.003409,-58,41,-1004,6,0,1,0,0,0.000949,0.001129,0,0,255,0.000000,0.000000,-7.872141,-10.219299,3.590893,0.010003,-0.010867,-0.001252,0.408540,-0.045299,0.016365,-0.911469,-0.001206,0.000253,0.000537,0.000000,0.000000,0.000000,0.000000,2,3,217,4,3,3
2.458000,3,0,0,-1,0,0.000000,0.000000,0.000000,0.000000,0.000000,0.000000,0.000000,0.000000,0.000000,0.000000,0.000000,0.000000,0.000000,0.000000,0.000000,0.000000,0.000000,0.000000,0.000000,0.000000,0.000000,0.000000,0.000000,0.000000,12401,12386,0,18,0,-1,0,22838,-0.067590,-0.068954,-2.297345,-0.001992,-0.005795,0.015849,-57,40,-1004,4,-6,17,0,0,0.000584,0.000266,0,0,255,0.000000,0.000000,-7.872642,-10.219613,3.591997,0.007841,-0.008968,-0.000089,0.408540,-0.045299,0.016365,-0.911469,-0.001206,0.000253,0.000537,0.000000,0.000000,0.000000,0.000000,2,3,217,4,3,3
2.493000,3,0,0,-1,0,0.000000,0.000000,0.000000,0.000000,0.000000,0.000000,0.000000,0.000000,0.000000,0.000000,0.000000,0.000000,0.000000,0.000000,0.000000,0.000000,0.000000,0.000000,0.000000,0.000000,0.000000,0.000000,0.000000,0.000000,12401,12386,0,17,0,0,0,22834,-0.067616,-0.068982,-2.298030,-0.007672,-0.001775,-0.039021,-56,46,-1006,-1,-2,-37,0,0,0.003218,0.008313,0,0,255,0.000000,0.000000,-7.873101,-10.219714,3.592743,0.007869,-0.010416,-0.000443,0.408540,-0.045299,0.016365,-0.911469,-0.001206,0.000253,0.000537,0.000000,0.000000,0.000000,0.000000,2,3,217,4,3,3
2.528000,3,0,0,-1,0,0.000000,0.000000,0.000000,0.000000,0.000000,0.000000,0.000000,0.000000,0.000000,0.000000,0.000000,0.000000,0.000000,0.000000,0.000000,0.000000,0.000000,0.000000,0.000000,0.000000,0.000000,0.000000,0.000000,0.000000,12401,12386,0,16,0,0,0,22837,-0.067649,-0.069240,-2.297380,0.000139,-0.001393,-0.017212,-60,43,-1004,6,-1,-15,0,0,0.005913,0.003731,0,0,255,0.000000,0.000000,-7.873373,-10.219833,3.593188,0.006553,-0.008957,-0.003099,0.408540,-0.045299,0.016365,-0.911469,-0.001206,0.000253,0.000537,0.000000,0.000000,0.000000,0.000000,2,3,217,4,3,3
2.562000,3,0,0,-1,0,0.000000,0.000000,0.000000,0.000000,0.000000,0.000000,0.000000,0.000000,0.000000,0.000000,0.000000,0.000000,0.000000,0.000000,0.000000,0.000000,0.000000,0.000000,0.000000,0.000000,0.000000,0.000000,0.000000,0.000000,12401,12386,0,16,0,0,0,22835,-0.067845,-0.069129,-2.297771,-0.010551,0.008786,-0.004273,-59,43,-1004,-3,8,-2,0,0,0.004446,-0.001583,0,0,255,0.000000,0.000000,-7.873889,-10.220254,3.593982,0.004485,-0.007119,-0.000391,0.408540,-0.045299,0.016365,-0.911469,-0.001206,0.000253,0.000537,0.000000,0.000000,0.000000,0.000000,2,3,217,4,3,3
2.597000,3,0,0,-1,0,0.000000,0.000000,0.000000,0.000000,0.000000,0.000000,0.000000,0.000000,0.000000,0.000000,0.000000,0.000000,0.000000,0.000000,0.000000,0.000000,0.000000,0.000000,0.000000,0.000000,0.000000,0.000000,0.000000,0.000000,12401,12386,0,15,0,0,0,22836,-0.068657,-0.068841,-2.297634,-0.017982,0.006058,-0.016145,-59,37,-1004,-9,7,16,0,0,0.016845,-0.008025,0,0,255,0.000000,0.000000,-7.874272,-10.220625,3.594328,0.004617,-0.007426,-0.000361,0.408540,-0.045299,0.016365,-0.911469,-0.001206,0.000253,0.000537,0.000000,0.000000,0.000000,0.000000,2,3,217,4,3,3
2.632000,3,0,0,-1,0,0.000000,0.000000,0.000000,0.000000,0.000000,0.000000,0.000000,0.000000,0.000000,0.000000,0.000000,0.000000,0.000000,0.000000,0.000000,0.000000,0.000000,0.000000,0.000000,0.000000,0.000000,0.000000,0.000000,0.000000,12401,12386,0,15,0,0,0,22836,-0.068888,-0.068814,-2.297555,-0.006596,-0.001493,0.012360,-56,41,-1003,0,-1,13,0,0,0.009224,-0.000881,0,0,255,0.000000,0.000000,-7.874620,-10.221012,3.594645,0.004253,-0.007706,-0.000420,0.408540,-0.045299,0.016365,-0.911469,-0.001206,0.000253,0.000537,0.000000,0.000000,0.000000,0.000000,2,3,217,4,3,3
2.667000,3,0,0,-1,0,0.000000,0.000000,0.000000,0.000000,0.000000,0.000000,0.000000,0.000000,0.000000,0.000000,0.000000,0.000000,0.000000,0.000000,0.000000,0.000000,0.000000,0.000000,0.000000,0.000000,0.000000,0.000000,0.000000,0.000000,12401,12386,0,14,0,0,0,22837,-0.068969,-0.068769,-2.297468,-0.003501,-0.001198,-0.005757,-57,45,-1004,3,-1,-4,0,0,0.004005,-0.000602,0,0,255,0.000000,0.000000,-7.875321,-10.221720,3.595230,0.003046,-0.008153,-0.000796,0.408540,-0.045299,0.016365,-0.911469,-0.001206,0.000253,0.000537,0.000000,0.000000,0.000000,0.000000,2,3,217,4,3,3
2.702000,3,0,0,-1,0,0.000000,0.000000,0.000000,0.000000,0.000000,0.000000,0.000000,0.000000,0.000000,0.000000,0.000000,0.000000,0.000000,0.000000,0.000000,0.000000,0.000000,0.000000,0.000000,0.000000,0.000000,0.000000,0.000000,0.000000,12401,12386,0,14,0,0,0,22837,-0.068798,-0.068955,-2.297434,0.006581,-0.002195,0.014631,-59,40,-1005,13,-2,16,0,0,-0.004427,0.005091,0,0,255,0.000000,0.000000,-7.875657,-10.222067,3.595497,0.002099,-0.008068,-0.000686,0.408540,-0.045299,0.016365,-0.911469,-0.001206,0.000253,0.000537,0.000000,0.000000,0.000000,0.000000,2,3,217,4,3,3
2.736000,3,0,0,-1,0,0.000000,0.000000,0.000000,0.000000,0.000000,0.000000,0.000000,0.000000,0.000000,0.000000,0.000000,0.000000,0.000000,0.000000,0.000000,0.000000,0.000000,0.000000,0.000000,0.000000,0.000000,0.000000,0.000000,0.000000,12401,12386,0,14,0,0,0,22836,-0.068847,-0.068940,-2.297717,-0.002554,0.001327,-0.017792,-57,43,-1005,4,0,-16,0,0,0.001623,-0.002584,0,0,255,0.000000,0.000000,-7.876327,-10.222680,3.595943,0.001726,-0.006675,-0.001824,0.408540,-0.045299,0.016365,-0.911469,-0.001206,0.000253,0.000537,0.000000,0.000000,0.000000,0.000000,2,3,217,4,3,3
2.771000,3,0,0,-1,0,0.000000,0.000000,0.000000,0.000000,0.000000,0.000000,0.000000,0.000000,0.000000,0.000000,0.000000,0.000000,0.000000,0.000000,0.000000,0.000000,0.000000,0.000000,0.000000,0.000000,0.000000,0.000000,0.000000,0.000000,12401,12386,0,12,0,0,0,22836,-0.069591,-0.068701,-2.297553,-0.014522,-0.005782,-0.002512,-59,39,-1008,-1,6,17,0,0,0.010971,-0.010000,0,0,255,0.000000,0.000000,-7.876654,-10.222959,3.596212,0.001878,-0.006090,-0.002866,0.408540,-0.045299,0.016365,-0.911469,-0.001206,0.000253,0.000537,0.000000,0.000000,0.000000,0.000000,2,3,217,4,3,3
2.807000,3,0,0,-1,0,0.000000,0.000000,0.000000,0.000000,0.000000,0.000000,0.000000,0.000000,0.000000,0.000000,0.000000,0.000000,0.000000,0.000000,0.000000,0.000000,0.000000,0.000000,0.000000,0.000000,0.000000,0.000000,0.000000,0.000000,12401,12386,0,12,0,0,0,22837,-0.069707,-0.068156,-2.297493,0.004530,0.021880,0.005747,-63,47,-1013,11,21,7,0,0,-0.005850,-0.017460,0,0,255,0.000000,0.000000,-7.876532,-10.223349,3.597028,-0.000057,-0.006496,-0.004888,0.408540,-0.045299,0.016365,-0.911469,-0.001206,0.000253,0.000537,0.000000,0.000000,0.000000,0.000000,2,3,217,4,3,3
2.843000,3,0,0,-1,0,0.000000,0.000000,0.000000,0.000000,0.000000,0.000000,0.000000,0.000000,0.000000,0.000000,0.000000,0.000000,0.000000,0.000000,0.000000,0.000000,0.000000,0.000000,0.000000,0.000000,0.000000,0.000000,0.000000,0.000000,12401,12386,0,11,0,0,0,22836,-0.069085,-0.067647,-2.297581,0.039880,0.025333,-0.003367,-61,46,-1008,46,24,-1,0,0,-0.024585,-0.024408,0,0,255,0.000000,0.000000,-7.876255,-10.224040,3.598316,0.002812,-0.008293,-0.006898,0.408540,-0.045299,0.016365,-0.911469,-0.001206,0.000253,0.000537,0.000000,0.000000,0.000000,0.000000,2,3,217,4,3,3
2.877000,3,0,0,-1,0,0.000000,0.000000,0.000000,0.000000,0.000000,0.000000,0.000000,0.000000,0.000000,0.000000,0.000000,0.000000,0.000000,0.000000,0.000000,0.000000,0.000000,0.000000,0.000000,0.000000,0.000000,0.000000,0.000000,0.000000,12401,12386,0,10,0,0,0,22833,-0.066266,-0.066817,-2.298137,0.058188,0.015562,-0.006611,-49,45,-1007,64,15,-4,0,0,-0.050110,-0.017610,0,0,255,0.000000,0.000000,-7.876076,-10.224497,3.599620,0.002556,-0.005235,-0.007412,0.408540,-0.045299,0.016365,-0.911469,-0.001206,0.000253,0.000537,0.000000,0.000000,0.000000,0.000000,2,3,217,4,3,3
2.912000,3,0,0,-1,0,0.000000,0.000000,0.000000,0.000000,0.000000,0.000000,0.000000,0.000000,0.000000,0.000000,0.000000,0.000000,0.000000,0.000000,0.000000,0.000000,0.000000,0.000000,0.000000,0.000000,0.000000,0.000000,0.000000,0.000000,12401,12386,0,9,0,0,-1,22832,-0.064634,-0.066527,-2.298321,0.050831,0.018000,-0.003093,-52,38,-1010,57,17,-1,0,0,-0.058888,-0.010125,0,0,255,0.000000,0.000000,-7.875860,-10.225174,3.600844,0.001644,-0.007440,-0.011543,0.408540,-0.045299,0.016365,-0.911469,-0.001206,0.000253,0.000537,0.000000,0.000000,0.000000,0.000000,2,3,217,4,3,3
2.947000,3,0,0,-1,0,0.000000,0.000000,0.000000,0.000000,0.000000,0.000000,0.000000,0.000000,0.000000,0.000000,0.000000,0.000000,0.000000,0.000000,0.000000,0.000000,0.000000,0.000000,0.000000,0.000000,0.000000,0.000000,0.000000,0.000000,12401,12386,0,8,0,0,-1,22828,-0.061756,-0.065236,-2.298997,0.056230,0.045138,-0.012879,-58,40,-1015,63,28,-11,0,0,-0.063925,-0.016296,0,0,255,0.000000,0.000000,-7.875743,-10.225476,3.601260,0.000009,-0.003796,-0.014444,0.408540,-0.045299,0.016365,-0.911469,-0.001206,0.000253,0.000537,0.000000,0.000000,0.000000,0.000000,2,3,217,4,3,3
2.982000,3,0,0,-1,0,0.000000,0.000000,0.000000,0.000000,0.000000,0.000000,0.000000,0.000000,0.000000,0.000000,0.000000,0.000000,0.000000,0.000000,0.000000,0.000000,0.000000,0.000000,0.000000,0.000000,0.000000,0.000000,0.000000,0.000000,12401,12386,0,7,0,0,-1,22825,-0.059964,-0.063816,-2.299561,0.062176,0.089627,-0.018351,-57,35,-1008,68,89,-16,0,0,-0.068879,-0.058074,0,0,255,0.000000,0.000000,-7.875640,-10.225739,3.602052,0.001901,-0.006398,-0.020472,0.408540,-0.045299,0.016365,-0.911469,-0.001206,0.000253,0.000537,0.000000,0.000000,0.000000,0.000000,2,3,217,4,3,3
3.017000,3,0,0,-1,0,0.000000,0.000000,0.000000,0.000000,0.000000,0.000000,0.000000,0.000000,0.000000,0.000000,0.000000,0.000000,0.000000,0.000000,0.000000,0.000000,0.000000,0.000000,0.000000,0.000000,0.000000,0.000000,0.000000,0.000000,12401,12386,0,7,0,0,-2,22821,-0.058318,-0.063021,-2.300256,0.051298,0.044747,-0.029989,-50,30,-1008,57,44,-28,0,0,-0.048024,-0.044476,0,0,255,0.000000,0.000000,-7.874673,-10.225792,3.602409,-0.001417,-0.006832,-0.029626,0.408540,-0.045299,0.016365,-0.911469,-0.001206,0.000253,0.000537,0.000000,0.000000,0.000000,0.000000,2,3,217,4,3,3
3.051000,3,0,0,-1,0,0.000000,0.000000,0.000000,0.000000,0.000000,0.000000,0.000000,0.000000,0.000000,0.000000,0.000000,0.000000,0.000000,0.000000,0.000000,0.000000,0.000000,0.000000,0.000000,0.000000,0.000000,0.000000,0.000000,0.000000,12401,12386,0,7,0,0,-2,22816,-0.056783,-0.061864,-2.301102,0.038681,0.023016,-0.009786,-48,30,-1025,45,22,-8,0,0,-0.025499,-0.021826,0,0,255,0.000000,0.000000,-7.874190,-10.225731,3.602315,-0.005010,-0.003185,-0.021879,0.408540,-0.045299,0.016365,-0.911469,-0.001206,0.000253,0.000537,0.000000,0.000000,0.000000,0.000000,2,3,217,4,3,3
3.085000,3,0,0,-1,0,0.000000,0.000000,0.000000,0.000000,0.000000,0.000000,0.000000,0.000000,0.000000,0.000000,0.000000,0.000000,0.000000,0.000000,0.000000,0.000000,0.000000,0.000000,0.000000,0.000000,0.000000,0.000000,0.000000,0.000000,12401,12386,0,6,0,0,-2,22814,-0.055624,-0.061011,-2.301512,0.029576,0.043589,-0.014985,-55,32,-1001,36,43,-13,0,0,-0.031246,-0.042418,0,0,255,0.000000,0.000000,-7.873256,-10.225600,3.602911,-0.000866,-0.004737,-0.037905,0.408540,-0.045299,0.016365,-0.911469,-0.001206,0.000253,0.000537,0.000000,0.000000,0.000000,0.000000,2,3,217,4,3,3
3.120000,3,0,0,-1,0,0.000000,0.000000,0.000000,0.000000,0.000000,0.000000,0.000000,0.000000,0.000000,0.000000,0.000000,0.000000,0.000000,0.000000,0.000000,0.000000,0.000000,0.000000,0.000000,0.000000,0.000000,0.000000,0.000000,0.000000,12401,12386,0,7,0,0,-3,22811,-0.053611,-0.057924,-2.301931,0.029108,0.082118,-0.005011,-53,26,-1021,45,39,-2,0,0,-0.044140,-0.049080,0,0,255,0.000000,0.000000,-7.872834,-10.225495,3.602853,-0.000045,0.000368,-0.038681,0.408540,-0.045299,0.016365,-0.911469,-0.001206,0.000253,0.000537,0.000000,0.000000,0.000000,0.000000,2,3,217,4,3,3
3.154000,3,0,0,-1,0,0.000000,0.000000,0.000000,0.000000,0.000000,0.000000,0.000000,0.000000,0.000000,0.000000,0.000000,0.000000,0.000000,0.000000,0.000000,0.000000,0.000000,0.000000,0.000000,0.000000,0.000000,0.000000,0.000000,0.000000,12401,12386,0,7,0,0,-4,22809,-0.052961,-0.057165,-2.302409,0.017961,0.008436,-0.022364,-42,23,-1020,24,7,-20,0,0,0.519279,0.114521,0,0,255,0.554214,0.184738,-7.872412,-10.225382,3.602708,0.002199,-0.003345,-0.034791,0.408540,-0.045299,0.016365,-0.911469,-0.001206,0.000253,0.000537,0.000000,0.000000,0.000000,0.000000,2,3,217,4,3,3
3.187000,3,0,0,-1,0,0.000000,0.000000,0.000000,0.000000,0.000000,0.000000,0.000000,0.000000,0.000000,0.000000,0.000000,0.000000,0.000000,0.000000,0.000000,0.000000,0.000000,0.000000,0.000000,0.000000,0.000000,0.000000,0.000000,0.000000,12401,12386,0,-9,0,0,-4,22805,-0.052784,-0.055493,-2.302969,0.004338,0.109862,-0.019446,-45,18,-1025,10,109,-17,0,0,0.009122,-0.075959,0,0,255,0.000000,0.000000,-7.875209,-10.225003,3.619062,-0.002717,0.001784,-0.044834,0.408540,-0.045299,0.016365,-0.911469,-0.001206,0.000253,0.000537,0.000000,0.000000,0.000000,0.000000,2,3,217,4,3,3
3.221000,3,0,0,-1,0,0.000000,0.000000,0.000000,0.000000,0.000000,0.000000,0.000000,0.000000,0.000000,0.000000,0.000000,0.000000,0.000000,0.000000,0.000000,0.000000,0.000000,0.000000,0.000000,0.000000,0.000000,0.000000,0.000000,0.000000,12401,12386,0,-38,0,0,-4,22798,-0.052640,-0.050833,-2.304264,0.008577,0.073691,-0.020245,-57,29,-1021,4,114,-18,0,0,-0.013893,-0.104133,0,0,255,0.000000,0.000000,-7.878156,-10.224663,3.634153,-0.003473,0.006712,-0.044188,0.408540,-0.045299,0.016365,-0.911469,-0.001206,0.000253,0.000537,0.000000,0.000000,0.000000,0.000000,2,3,217,4,3,3
3.254000,3,0,0,-1,0,0.000000,0.000000,0.000000,0.000000,0.000000,0.000000,0.000000,0.000000,0.000000,0.000000,0.000000,0.000000,0.000000,0.000000,0.000000,0.000000,0.000000,0.000000,0.000000,0.000000,0.000000,0.000000,0.000000,0.000000,12401,12386,0,-51,-1,1,-5,22796,-0.052256,-0.047309,-2.304680,0.031266,0.141583,-0.012453,-39,19,-1053,37,141,-10,0,0,0.019851,-0.138323,0,0,255,0.000000,0.000000,-7.882277,-10.224190,3.654968,-0.008593,0.006776,-0.040666,0.408540,-0.045299,0.016365,-0.911469,-0.001206,0.000253,0.000537,0.000000,0.000000,0.000000,0.000000,2,3,217,4,3,3
3.287000,3,0,0,-1,0,0.000000,0.000000,0.000000,0.000000,0.000000,0.000000,0.000000,0.000000,0.000000,0.000000,0.000000,0.000000,0.000000,0.000000,0.000000,0.000000,0.000000,0.000000,0.000000,0.000000,0.000000,0.000000,0.000000,0.000000,12401,12386,0,-62,-1,0,-5,22794,-0.049914,-0.043044,-2.304919,0.115599,0.192446,-0.001636,-31,25,-1058,122,191,0,0,0,-0.119607,-0.159911,0,0,255,0.000000,0.000000,-7.887737,-10.223360,3.678645,-0.017425,0.007693,-0.066523,0.408540,-0.045299,0.016365,-0.911469,-0.001206,0.000253,0.000537,0.000000,0.000000,0.000000,0.000000,2,3,217,4,3,3
3.321000,3,0,0,-1,0,0.000000,0.000000,0.000000,0.000000,0.000000,0.000000,0.000000,0.000000,0.000000,0.000000,0.000000,0.000000,0.000000,0.000000,0.000000,0.000000,0.000000,0.000000,0.000000,0.000000,0.000000,0.000000,0.000000,0.000000,12401,12386,0,-82,-3,0,-8,22797,-0.046240,-0.036979,-2.304404,0.055797,0.137459,0.038903,-19,28,-1060,103,58,8,0,0,-0.071746,-0.148392,0,0,255,0.000000,0.000000,-7.889261,-10.223145,3.683150,-0.020120,0.003860,-0.074191,0.408540,-0.045299,0.016365,-0.911469,-0.001206,0.000253,0.000537,0.000000,0.000000,0.000000,0.000000,2,3,217,4,3,3
3.354000,3,0,0,-1,0,0.000000,0.000000,0.000000,0.000000,0.000000,0.000000,0.000000,0.000000,0.000000,0.000000,0.000000,0.000000,0.000000,0.000000,0.000000,0.000000,0.000000,0.000000,0.000000,0.000000,0.000000,0.000000,0.000000,0.000000,12401,12386,0,-91,-3,1,-9,22804,-0.044467,-0.030937,-2.303162,0.085318,0.265132,0.071889,-22,2,-1065,91,264,73,0,0,-0.708756,0.020766,0,0,255,-0.671179,0.167795,-7.893105,-10.222659,3.697537,-0.029473,0.007430,-0.080716,0.408540,-0.045299,0.016365,-0.911469,-0.001206,0.000253,0.000537,0.000000,0.000000,0.000000,0.000000,2,3,217,4,3,3
3.388000,3,0,0,-1,0,0.000000,0.000000,0.000000,0.000000,0.000000,0.000000,0.000000,0.000000,0.000000,0.000000,0.000000,0.000000,0.000000,0.000000,0.000000,0.000000,0.000000,0.000000,0.000000,0.000000,0.000000,0.000000,0.000000,0.000000,12401,12386,0,-95,-4,1,-10,22816,-0.041049,-0.026513,-2.301195,0.166851,0.181748,0.083115,-15,-2,-1066,173,181,84,0,0,1.173864,0.779840,1,0,255,1.325444,0.946746,-7.897558,-10.219890,3.708120,-0.040474,0.012042,-0.111361,0.408540,-0.045299,0.016365,-0.911469,-0.001206,0.000253,0.000537,0.000000,0.000000,0.000000,0.000000,2,3,217,4,3,3
3.420000,3,0,0,-1,0,0.000000,0.000000,0.000000,0.000000,0.000000,0.000000,0.000000,0.000000,0.000000,0.000000,0.000000,0.000000,0.000000,0.000000,0.000000,0.000000,0.000000,0.000000,0.000000,0.000000,0.000000,0.000000,0.000000,0.000000,12401,12386,0,-98,-4,1,-12,22832,-0.028582,-0.017059,-2.294987,0.235078,0.234245,0.142823,-10,4,-1086,244,176,116,0,0,-0.244990,-0.179242,0,0,255,0.000000,0.000000,-7.899707,-10.218173,3.710922,-0.041363,0.018282,-0.127246,0.408540,-0.045299,0.016365,-0.911469,-0.001206,0.000253,0.000537,0.000000,0.000000,0.000000,0.000000,2,3,217,4,3,3
3.454000,3,0,0,-1,0,0.000000,0.000000,0.000000,0.000000,0.000000,0.000000,0.000000,0.000000,0.000000,0.000000,0.000000,0.000000,0.000000,0.000000,0.000000,0.000000,0.000000,0.000000,0.000000,0.000000,0.000000,0.000000,0.000000,0.000000,12401,12386,0,-103,-4,1,-16,22876,-0.023502,-0.011686,-2.290624,0.171857,0.223628,0.185934,-4,12,-1101,178,223,187,0,0,-0.264353,-0.057247,0,0,255,0.000000,0.119007,-7.901601,-10.216587,3.713469,-0.042276,0.017828,-0.150473,0.408540,-0.045299,0.016365,-0.911469,-0.001206,0.000253,0.000537,0.000000,0.000000,0.000000,0.000000,2,3,217,4,3,3
3.487000,3,0,0,-1,0,0.000000,0.000000,0.000000,0.000000,0.000000,0.000000,0.000000,0.000000,0.000000,0.000000,0.000000,0.000000,0.000000,0.000000,0.000000,0.000000,0.000000,0.000000,0.000000,0.000000,0.000000,0.000000,0.000000,0.000000,12401,12386,0,-106,-4,1,-19,22907,-0.021327,-0.006580,-2.285278,0.067537,0.191041,0.220091,-1,3,-1108,74,190,221,0,0,0.108656,1.539684,0,1,255,0.177868,1.778676,-7.905510,-10.213515,3.715850,-0.047681,0.016250,-0.204361,0.408540,-0.045299,0.016365,-0.911469,-0.001206,0.000253,0.000537,0.000000,0.000000,0.000000,0.000000,2,3,217,4,3,3
3.521000,3,0,0,-1,0,0.000000,0.000000,0.000000,0.000000,0.000000,0.000000,0.000000,0.000000,0.000000,0.000000,0.000000,0.000000,0.000000,0.000000,0.000000,0.000000,0.000000,0.000000,0.000000,0.000000,0.000000,0.000000,0.000000,0.000000,12401,12386,0,-106,-3,2,-21,22941,-0.015157,-0.000200,-2.272365,0.125112,0.040410,0.295729,-3,0,-1123,163,111,270,0,0,-0.570015,-0.206715,0,0,255,-0.469876,0.000000,-7.907818,-10.211454,3.716823,-0.043144,0.020844,-0.236165,0.408540,-0.045299,0.016365,-0.911469,-0.001206,0.000253,0.000537,0.000000,0.000000,0.000000,0.000000,2,3,217,4,3,3
