g_app_elapsed_time,g_system_state,g_target_too_close,g_target_valid,g_target_detection_num,g_target_track_id,g_target_cntr_offset_x,g_target_cntr_offset_y,g_target_height,g_target_width,g_target_aspect,g_target_left,g_target_right,g_target_top,g_target_bottom,d_target_h,d_target_w,g_x_target,g_y_target,g_z_target,g_x_target_ekf,g_y_target_ekf,g_vx_target_ekf,g_vy_target_ekf,g_ax_target_ekf,g_ay_target_ekf,d_target,g_x_error,g_y_error,g_delta_angle,g_camera_tilt_angle,g_delta_d_x,g_delta_d_z,g_vx_adjust,g_vy_adjust,g_vz_adjust,g_yaw_target,g_yaw_target_error,g_mav_veh_sys_stat_voltage_battery,g_mav_veh_sys_stat_current_battery,g_mav_veh_sys_stat_battery_remaining,g_mav_veh_rel_alt,g_mav_veh_gps_vx,g_mav_veh_gps_vy,g_mav_veh_gps_vz,g_mav_veh_gps_hdg,g_mav_veh_roll,g_mav_veh_pitch,g_mav_veh_yaw,g_mav_veh_rollspeed,g_mav_veh_pitchspeed,g_mav_veh_yawspeed,g_mav_veh_imu_ax,g_mav_veh_imu_ay,g_mav_veh_imu_az,g_mav_veh_imu_xgyro,g_mav_veh_imu_ygyro,g_mav_veh_imu_zgyro,g_mav_veh_rngfdr_current_distance,g_mav_veh_rngfdr_signal_quality,g_mav_veh_flow_comp_m_x,g_mav_veh_flow_comp_m_y,g_mav_veh_flow_x,g_mav_veh_flow_y,g_mav_veh_flow_quality,g_mav_veh_flow_rate_x,g_mav_veh_flow_rate_y,g_mav_veh_local_ned_x,g_mav_veh_local_ned_y,g_mav_veh_local_ned_z,g_mav_veh_local_ned_vx,g_mav_veh_local_ned_vy,g_mav_veh_local_ned_vz,g_mav_veh_q1_actual,g_mav_veh_q2_actual,g_mav_veh_q3_actual,g_mav_veh_q4_actual,g_mav_veh_roll_rate_actual,g_mav_veh_pitch_rate_actual,g_mav_veh_yaw_rate_actual,g_mav_veh_repr_offset_q[0],g_mav_veh_repr_offset_q[1],g_mav_veh_repr_offset_q[2],g_mav_veh_repr_offset_q[3],g_mav_veh_type,g_mav_veh_autopilot_type,g_mav_veh_base_mode, g_mav_veh_custom_mode,g_mav_veh_state,g_mav_veh_mavlink_version
0.000000,0,0,0,-1,0,0.000000,0.000000,0.000000,0.000000,0.000000,0.000000,0.000000,0.000000,0.000000,0.000000,0.000000,0.000000,0.000000,0.000000,0.000000,0.000000,0.000000,0.000000,0.000000,0.000000,0.000000,0.000000,0.000000,0.000000,0.000000,0.000000,0.000000,0.000000,0.000000,0.000000,0.000000,0.000000,0,0,0,0,0,0,0,0,0.000000,0.000000,0.000000,0.000000,0.000000,0.000000,0,0,0,0,0,0,0,0,0.000000,0.000000,0,0,0,0.000000,0.000000,0.000000,0.000000,0.000000,0.000000,0.000000,0.000000,0.000000,0.000000,0.000000,0.000000,0.000000,0.000000,0.000000,0.000000,0.000000,0.000000,0.000000,0,0,0,0,0,0
0.000000,1,0,0,-1,0,0.000000,0.000000,0.000000,0.000000,0.000000,0.000000,0.000000,0.000000,0.000000,0.000000,0.000000,0.000000,0.000000,0.000000,0.000000,0.000000,0.000000,0.000000,0.000000,0.000000,0.000000,0.000000,0.000000,0.000000,0.000000,0.000000,0.000000,0.000000,0.000000,0.000000,0.000000,0.000000,0,0,0,6774,2,0,0,3533,-0.001269,-0.001352,0.000000,-0.000454,-0.000918,0.000009,0,0,-1000,-1,0,1,701,0,-0.044520,0.046489,0,0,51,-0.043834,0.045381,691.787048,715.886414,-6.764920,0.020665,-0.000562,-0.000017,0.000000,0.000000,0.000000,0.000000,0.000000,0.000000,0.000000,0.000000,0.000000,0.000000,0.000000,0,0,0,0,0,0
0.250000,1,0,0,-1,0,0.000000,0.000000,0.000000,0.000000,0.000000,0.000000,0.000000,0.000000,0.000000,0.000000,0.000000,0.000000,0.000000,0.000000,0.000000,0.000000,0.000000,0.000000,0.000000,0.000000,0.000000,0.000000,0.000000,0.000000,0.000000,0.000000,0.000000,0.000000,0.000000,0.000000,0.000000,-0.000015,0,0,0,6774,2,0,0,3533,-0.001274,-0.001329,0.000015,-0.000271,0.001070,-0.000286,0,0,-1001,0,2,1,701,0,0.026853,-0.017881,0,0,51,0.026820,-0.018789,691.786682,715.886414,-6.764915,0.021190,-0.000561,0.000006,0.000000,0.000000,0.000000,0.000000,0.000000,0.000000,0.000000,0.000000,0.000000,0.000000,0.000000,2,3,217,4,4,3
0.324000,1,0,0,-1,0,0.000000,0.000000,0.000000,0.000000,0.000000,0.000000,0.000000,0.000000,0.000000,0.000000,0.000000,0.000000,0.000000,0.000000,0.000000,0.000000,0.000000,0.000000,0.000000,0.000000,0.000000,0.000000,0.000000,0.000000,0.000000,0.000000,0.000000,0.000000,0.000000,0.000000,0.000000,-0.000006,0,0,0,6774,2,0,0,3533,-0.001268,-0.001416,0.000006,-0.000290,-0.004113,-0.000766,0,0,-1000,0,-3,0,701,0,-0.022786,-0.030349,0,0,51,-0.022816,-0.029381,691.785706,715.886414,-6.764912,0.021260,-0.000568,-0.000031,0.000000,0.000000,0.000000,0.000000,0.000000,0.000000,0.000000,0.000000,0.000000,0.000000,0.000000,2,3,217,4,4,3
0.410000,1,0,0,-1,0,0.000000,0.000000,0.000000,0.000000,0.000000,0.000000,0.000000,0.000000,0.000000,0.000000,0.000000,0.000000,0.000000,0.000000,0.000000,0.000000,0.000000,0.000000,0.000000,0.000000,0.000000,0.000000,0.000000,0.000000,0.000000,0.000000,0.000000,0.000000,0.000000,0.000000,0.000000,0.000052,0,0,0,6774,2,0,0,3533,-0.001268,-0.001564,-0.000052,-0.000224,-0.001445,-0.001228,0,0,-1001,0,0,0,701,0,-0.038604,-0.048557,0,0,51,-0.038629,-0.050102,691.785278,715.886414,-6.764913,0.021786,-0.000505,-0.000057,0.000000,0.000000,0.000000,0.000000,0.000000,0.000000,0.000000,0.000000,0.000000,0.000000,0.000000,2,3,217,4,4,3
0.488000,1,0,0,-1,0,0.000000,0.000000,0.000000,0.000000,0.000000,0.000000,0.000000,0.000000,0.000000,0.000000,0.000000,0.000000,0.000000,0.000000,0.000000,0.000000,0.000000,0.000000,0.000000,0.000000,0.000000,0.000000,0.000000,0.000000,0.000000,0.000000,0.000000,0.000000,0.000000,0.000000,0.000000,0.000107,0,0,0,6774,2,0,0,3532,-0.001258,-0.001637,-0.000107,-0.000196,-0.001623,-0.001130,0,0,-1001,0,0,0,701,0,-0.038604,-0.048557,0,0,51,-0.038629,-0.050102,691.784912,715.886414,-6.764908,0.022418,-0.000446,0.000061,0.000000,0.000000,0.000000,0.000000,0.000000,0.000000,0.000000,0.000000,0.000000,0.000000,0.000000,2,3,217,4,4,3
0.561000,1,0,0,-1,0,0.000000,0.000000,0.000000,0.000000,0.000000,0.000000,0.000000,0.000000,0.000000,0.000000,0.000000,0.000000,0.000000,0.000000,0.000000,0.000000,0.000000,0.000000,0.000000,0.000000,0.000000,0.000000,0.000000,0.000000,0.000000,0.000000,0.000000,0.000000,0.000000,0.000000,0.000000,0.000120,0,0,0,6774,2,0,0,3532,-0.001229,-0.001695,-0.000120,0.001749,-0.001534,-0.000623,0,0,-1001,2,0,0,701,0,-0.028734,-0.041677,0,0,51,-0.027765,-0.042986,691.784241,715.886414,-6.764905,0.022458,-0.000370,-0.000051,0.000000,0.000000,0.000000,0.000000,0.000000,0.000000,0.000000,0.000000,0.000000,0.000000,0.000000,2,3,217,4,4,3
0.632000,1,0,0,-1,0,0.000000,0.000000,0.000000,0.000000,0.000000,0.000000,0.000000,0.000000,0.000000,0.000000,0.000000,0.000000,0.000000,0.000000,0.000000,0.000000,0.000000,0.000000,0.000000,0.000000,0.000000,0.000000,0.000000,0.000000,0.000000,0.000000,0.000000,0.000000,0.000000,0.000000,0.000000,0.000118,12600,2812,0,6774,2,0,0,3532,-0.001262,-0.001723,-0.000118,-0.001813,-0.001484,-0.000461,0,0,-1001,2,0,0,701,0,0.009018,-0.029397,0,0,51,0.008928,-0.030467,691.783997,715.886475,-6.764910,0.023173,-0.000243,-0.000135,-0.952853,0.000336,0.001031,-0.303431,-0.001602,-0.001353,-0.000265,0.000000,0.000000,0.000000,0.000000,2,3,217,4,4,3
0.703000,2,0,0,-1,0,0.000000,0.000000,0.000000,0.000000,0.000000,0.000000,0.000000,0.000000,0.000000,0.000000,0.000000,0.000000,0.000000,0.000000,0.000000,0.000000,0.000000,0.000000,0.000000,0.000000,0.000000,0.000000,0.000000,0.000000,0.000000,0.000000,0.000000,0.000000,0.000000,0.000000,0.000000,0.000067,12600,2812,0,6774,2,0,0,3533,-0.001209,-0.001773,-0.000067,0.000696,-0.001517,-0.000091,0,0,-1000,1,0,1,701,0,0.009018,-0.029397,0,0,51,0.008928,-0.030467,691.783447,715.886475,-6.764921,0.023629,-0.000075,-0.000260,-0.952853,0.000336,0.001031,-0.303431,-0.001602,-0.001353,-0.000265,0.000000,0.000000,0.000000,0.000000,2,3,217,4,4,3
0.769000,4,0,0,-1,0,0.000000,0.000000,0.000000,0.000000,0.000000,0.000000,0.000000,0.000000,0.000000,0.000000,0.000000,0.000000,0.000000,0.000000,0.000000,0.000000,0.000000,0.000000,0.000000,0.000000,0.000000,0.000000,0.000000,0.000000,0.000000,0.000000,0.000000,0.000000,0.000000,0.000000,0.000000,0.000048,12600,2812,0,6774,2,0,0,3533,-0.001168,-0.001820,-0.000048,0.000501,-0.001301,-0.000121,0,0,-1000,1,0,1,701,0,0.025857,-0.020124,0,0,51,0.026736,-0.021169,691.783386,715.886536,-6.764919,0.024399,0.000179,0.000232,-0.952853,0.000336,0.001031,-0.303431,-0.001602,-0.001353,-0.000265,0.000000,0.000000,0.000000,0.000000,2,3,217,4,4,3
0.835000,4,0,0,-1,0,0.000000,0.000000,0.000000,0.000000,0.000000,0.000000,0.000000,0.000000,0.000000,0.000000,0.000000,0.000000,0.000000,0.000000,0.000000,0.000000,0.000000,0.000000,0.000000,0.000000,0.000000,0.000000,0.000000,0.000000,0.000000,0.000000,0.000000,0.000000,0.000000,0.000000,0.000000,0.000025,12600,2812,0,6774,2,0,0,3533,-0.001203,-0.001738,-0.000025,-0.000525,0.001326,-0.000146,0,0,-1001,0,2,1,701,0,-0.014808,-0.037175,0,0,51,-0.014090,-0.036134,691.783386,715.886536,-6.764903,0.025046,0.000375,-0.000060,-0.952853,0.000336,0.001031,-0.303431,-0.001602,-0.001353,-0.000265,0.000000,0.000000,0.000000,0.000000,2,3,217,4,4,3
0.910000,4,0,0,-1,0,0.000000,0.000000,0.000000,0.000000,0.000000,0.000000,0.000000,0.000000,0.000000,0.000000,0.000000,0.000000,0.000000,0.000000,0.000000,0.000000,0.000000,0.000000,0.000000,0.000000,0.000000,0.000000,0.000000,0.000000,0.000000,0.000000,0.000000,0.000000,0.000000,0.000000,0.000000,-0.000004,12600,2812,0,6774,2,0,0,3533,-0.001272,-0.001477,0.000004,-0.002055,0.001201,-0.000152,0,0,-1000,-1,2,1,701,0,0.004060,-0.040501,0,0,51,0.002082,-0.037249,691.782837,715.886597,-6.764905,0.025151,0.000464,-0.000046,-0.952853,0.000336,0.001031,-0.303431,-0.001602,-0.001353,-0.000265,0.000000,0.000000,0.000000,0.000000,2,3,217,4,4,3
0.979000,4,0,0,-1,0,0.000000,0.000000,0.000000,0.000000,0.000000,0.000000,0.000000,0.000000,0.000000,0.000000,0.000000,0.000000,0.000000,0.000000,0.000000,0.000000,0.000000,0.000000,0.000000,0.000000,0.000000,0.000000,0.000000,0.000000,0.000000,0.000000,0.000000,0.000000,0.000000,0.000000,0.000000,-0.000033,12600,2812,0,6774,2,0,0,3533,-0.001228,-0.001450,0.000033,-0.000188,-0.000033,-0.000122,0,0,-1000,0,1,1,701,0,0.004060,-0.040501,0,0,51,0.002082,-0.037249,691.782898,715.886658,-6.764899,0.025549,0.000454,0.000230,-0.952853,0.000336,0.001031,-0.303431,-0.001602,-0.001353,-0.000265,0.000000,0.000000,0.000000,0.000000,2,3,217,4,4,3
1.035000,4,0,0,-1,0,0.000000,0.000000,0.000000,0.000000,0.000000,0.000000,0.000000,0.000000,0.000000,0.000000,0.000000,0.000000,0.000000,0.000000,0.000000,0.000000,0.000000,0.000000,0.000000,0.000000,0.000000,0.000000,0.000000,0.000000,0.000000,0.000000,0.000000,0.000000,0.000000,0.000000,0.000000,-0.000038,12600,2812,0,6774,2,0,0,3533,-0.001232,-0.001402,0.000038,-0.000279,0.001876,-0.000481,0,0,-1001,0,2,0,701,0,0.034146,0.006625,0,0,51,0.034079,0.008823,691.783081,715.886719,-6.764875,0.026002,0.000462,0.000254,-0.952853,0.000336,0.001031,-0.303431,-0.001602,-0.001353,-0.000265,0.000000,0.000000,0.000000,0.000000,2,3,217,4,4,3
1.101000,4,0,0,-1,0,0.000000,0.000000,0.000000,0.000000,0.000000,0.000000,0.000000,0.000000,0.000000,0.000000,0.000000,0.000000,0.000000,0.000000,0.000000,0.000000,0.000000,0.000000,0.000000,0.000000,0.000000,0.000000,0.000000,0.000000,0.000000,0.000000,0.000000,0.000000,0.000000,0.000000,0.000000,-0.000014,12600,2812,0,6774,2,0,0,3533,-0.001235,-0.001364,0.000014,-0.000303,-0.001480,-0.001051,0,0,-1001,0,4,0,701,0,0.034146,0.006625,0,0,51,0.034079,0.008823,691.782715,715.886719,-6.764864,0.026039,0.000432,0.000134,-0.952853,0.000336,0.001031,-0.303431,-0.001602,-0.001353,-0.000265,0.000000,0.000000,0.000000,0.000000,2,3,217,4,4,3
1.167000,4,0,0,-1,0,0.000000,0.000000,0.000000,0.000000,0.000000,0.000000,0.000000,0.000000,0.000000,0.000000,0.000000,0.000000,0.000000,0.000000,0.000000,0.000000,0.000000,0.000000,0.000000,0.000000,0.000000,0.000000,0.000000,0.000000,0.000000,0.000000,0.000000,0.000000,0.000000,0.000000,0.000000,0.000022,12600,2812,0,6774,2,0,0,3533,-0.001250,-0.001305,-0.000022,-0.000801,-0.000098,-0.001241,0,0,-1001,0,0,0,701,0,0.002569,-0.043628,0,0,51,0.002515,-0.045500,691.782593,715.886780,-6.764858,0.026287,0.000384,-0.000041,-0.952853,0.000336,0.001031,-0.303431,-0.001602,-0.001353,-0.000265,0.000000,0.000000,0.000000,0.000000,2,3,217,4,4,3
1.234000,4,0,0,-1,0,0.000000,0.000000,0.000000,0.000000,0.000000,0.000000,0.000000,0.000000,0.000000,0.000000,0.000000,0.000000,0.000000,0.000000,0.000000,0.000000,0.000000,0.000000,0.000000,0.000000,0.000000,0.000000,0.000000,0.000000,0.000000,0.000000,0.000000,0.000000,0.000000,0.000000,0.000000,0.000066,12600,2812,0,6774,2,0,0,3533,-0.001249,-0.001327,-0.000066,0.001306,-0.001288,-0.000889,0,0,-1001,2,0,0,701,0,0.001371,0.002698,0,0,51,0.000360,0.001689,691.782837,715.886780,-6.764862,0.026571,0.000337,-0.000152,-0.952853,0.000336,0.001031,-0.303431,-0.001602,-0.001353,-0.000265,0.000000,0.000000,0.000000,0.000000,2,3,217,4,4,3
1.300000,4,0,0,-1,0,0.000000,0.000000,0.000000,0.000000,0.000000,0.000000,0.000000,0.000000,0.000000,0.000000,0.000000,0.000000,0.000000,0.000000,0.000000,0.000000,0.000000,0.000000,0.000000,0.000000,0.000000,0.000000,0.000000,0.000000,0.000000,0.000000,0.000000,0.000000,0.000000,0.000000,0.000000,0.000063,12600,2812,0,6774,2,0,0,3533,-0.001251,-0.001388,-0.000063,-0.000918,-0.001136,-0.000331,0,0,-1001,2,0,0,701,0,0.001371,0.002698,0,0,51,0.000360,0.001689,691.782654,715.886780,-6.764874,0.026732,0.000296,-0.000232,-0.952853,0.000336,0.001031,-0.303431,-0.001602,-0.001353,-0.000265,0.000000,0.000000,0.000000,0.000000,2,3,217,4,4,3
1.365000,4,0,0,-1,0,0.000000,0.000000,0.000000,0.000000,0.000000,0.000000,0.000000,0.000000,0.000000,0.000000,0.000000,0.000000,0.000000,0.000000,0.000000,0.000000,0.000000,0.000000,0.000000,0.000000,0.000000,0.000000,0.000000,0.000000,0.000000,0.000000,0.000000,0.000000,0.000000,0.000000,0.000000,0.000048,12600,2812,0,6774,2,0,0,3533,-0.001215,-0.001422,-0.000048,0.001037,-0.001075,-0.000150,0,0,-1000,2,0,1,701,0,0.015824,-0.035924,0,0,51,0.012922,-0.036745,691.782593,715.886780,-6.764890,0.027020,0.000278,-0.000166,-0.952853,0.000336,0.001031,-0.303431,-0.001602,-0.001353,-0.000265,0.000000,0.000000,0.000000,0.000000,2,3,217,4,4,3
1.430000,4,0,0,-1,0,0.000000,0.000000,0.000000,0.000000,0.000000,0.000000,0.000000,0.000000,0.000000,0.000000,0.000000,0.000000,0.000000,0.000000,0.000000,0.000000,0.000000,0.000000,0.000000,0.000000,0.000000,0.000000,0.000000,0.000000,0.000000,0.000000,0.000000,0.000000,0.000000,0.000000,0.000000,0.000007,12600,2812,0,6774,2,0,0,3533,-0.001248,-0.001473,-0.000007,-0.001705,-0.000908,0.000115,0,0,-1000,0,0,1,701,0,-0.041438,-0.025491,0,0,51,-0.039532,-0.026162,691.782837,715.886780,-6.764894,0.027349,0.000274,-0.000110,-0.952853,0.000336,0.001031,-0.303431,-0.001602,-0.001353,-0.000265,0.000000,0.000000,0.000000,0.000000,2,3,217,4,4,3
1.502000,4,0,0,-1,0,0.000000,0.000000,0.000000,0.000000,0.000000,0.000000,0.000000,0.000000,0.000000,0.000000,0.000000,0.000000,0.000000,0.000000,0.000000,0.000000,0.000000,0.000000,0.000000,0.000000,0.000000,0.000000,0.000000,0.000000,0.000000,0.000000,0.000000,0.000000,0.000000,0.000000,0.000000,-0.000040,12600,2812,0,6774,2,0,0,3533,-0.001182,-0.001281,0.000040,0.001795,0.001371,0.000021,0,0,-1001,2,2,1,701,0,-0.041438,-0.025491,0,0,51,-0.039532,-0.026162,691.782898,715.886841,-6.764905,0.027595,0.000279,-0.000288,-0.952853,0.000336,0.001031,-0.303431,-0.001602,-0.001353,-0.000265,0.000000,0.000000,0.000000,0.000000,2,3,217,4,4,3
1.571000,4,0,0,-1,0,0.000000,0.000000,0.000000,0.000000,0.000000,0.000000,0.000000,0.000000,0.000000,0.000000,0.000000,0.000000,0.000000,0.000000,0.000000,0.000000,0.000000,0.000000,0.000000,0.000000,0.000000,0.000000,0.000000,0.000000,0.000000,0.000000,0.000000,0.000000,0.000000,0.000000,0.000000,-0.000057,12600,2812,0,6774,2,0,0,3533,-0.001096,-0.001257,0.000057,0.001381,-0.000734,-0.000254,0,0,-1001,2,0,1,701,0,-0.044264,0.025577,0,0,51,-0.042405,0.028498,691.783020,715.886841,-6.764920,0.027825,0.000229,-0.000188,-0.952853,0.000336,0.001031,-0.303431,-0.001602,-0.001353,-0.000265,0.000000,0.000000,0.000000,0.000000,2,3,217,4,4,3
1.642000,4,0,1,0,0,44.000000,-609.000000,118.000000,60.000000,0.508475,1.000000,61.000000,345.000000,463.000000,0.000000,0.000000,0.000000,0.000000,0.000000,0.000000,0.000000,0.000000,0.000000,0.000000,0.000000,0.000000,0.000000,0.000000,0.000000,0.000000,0.000000,0.000000,0.000000,0.000000,0.000000,-0.669900,-0.669944,12600,2812,0,6774,2,0,0,3533,-0.000954,-0.001129,0.000044,0.001135,0.001578,-0.000866,0,0,-1001,2,2,0,701,0,-0.019679,0.003350,0,0,51,-0.018163,0.001239,691.783386,715.886841,-6.764931,0.028008,0.000307,-0.000162,-0.952853,0.000336,0.001031,-0.303431,-0.001602,-0.001353,-0.000265,0.000000,0.000000,0.000000,0.000000,2,3,217,4,4,3
1.709000,4,0,0,-1,0,44.000000,-609.000000,118.000000,60.000000,0.508475,1.000000,61.000000,345.000000,463.000000,0.000000,0.000000,0.000000,0.000000,0.000000,0.000000,0.000000,0.000000,0.000000,0.000000,0.000000,0.000000,0.000000,0.000000,0.000000,0.000000,0.000000,0.000000,0.000000,0.000000,0.000000,-0.669900,-0.669917,12600,2812,0,6774,2,0,0,3533,-0.000956,-0.001053,0.000017,-0.001714,0.000249,-0.001047,0,0,-1001,0,1,0,701,0,-0.018888,-0.043146,0,0,51,-0.020527,-0.044562,691.783142,715.886841,-6.764942,0.027795,0.000332,-0.000192,-0.952853,0.000336,0.001031,-0.303431,-0.001602,-0.001353,-0.000265,0.000000,0.000000,0.000000,0.000000,2,3,217,4,4,3
1.780000,4,0,0,-1,0,44.000000,-609.000000,118.000000,60.000000,0.508475,1.000000,61.000000,345.000000,463.000000,0.000000,0.000000,0.000000,0.000000,0.000000,0.000000,0.000000,0.000000,0.000000,0.000000,0.000000,0.000000,0.000000,0.000000,0.000000,0.000000,0.000000,0.000000,0.000000,0.000000,0.000000,-0.669900,-0.669879,12600,2812,0,6774,2,0,0,3533,-0.001063,-0.000883,-0.000021,-0.001580,0.001809,-0.000953,0,0,-1000,0,2,0,701,0,-0.018888,-0.043146,0,0,51,-0.020527,-0.044562,691.783203,715.886841,-6.764942,0.027723,0.000275,0.000092,-0.952853,0.000336,0.001031,-0.303431,-0.001602,-0.001353,-0.000265,0.000000,0.000000,0.000000,0.000000,2,3,217,4,4,3
1.837000,4,1,1,2,0,77.000000,-577.500000,120.000000,43.000000,0.358333,41.000000,84.000000,377.000000,497.000000,15.000000,15.000000,13.591526,-42.514000,6.345899,1.249620,-1.140363,0.061787,-0.051782,0.001543,-0.001293,15.000000,-2.750380,-1.140363,1.133975,-0.436820,0.000000,0.000000,-0.000000,-0.005702,0.000000,-0.635250,-0.635206,12600,2812,0,6774,2,0,0,3533,-0.001079,-0.000820,-0.000044,0.001240,0.001582,-0.000826,0,0,-1001,2,2,0,701,0,0.004307,-0.038413,0,0,51,0.002977,-0.036363,691.783691,715.886841,-6.764923,0.027858,0.000077,0.000043,-0.952853,0.000336,0.001031,-0.303431,-0.001602,-0.001353,-0.000265,0.000000,0.000000,0.000000,0.000000,2,3,217,4,4,3
1.908000,4,1,1,1,0,74.500000,-574.000000,139.000000,62.000000,0.446043,35.000000,97.000000,365.000000,504.000000,15.000000,15.000000,13.591784,-42.256397,6.345345,2.309287,-2.321354,0.170041,-0.150838,0.007054,-0.006251,15.000000,-1.690713,-2.321354,1.134016,-0.436779,0.000000,0.000000,0.000000,-0.011607,0.000000,-0.631400,-0.631348,12600,2812,0,6774,2,0,0,3533,-0.001122,-0.000779,-0.000052,-0.001669,0.000596,-0.000492,0,0,-1001,0,1,0,701,0,0.003055,-0.033879,0,0,51,-0.000147,-0.032940,691.783569,715.886841,-6.764925,0.027659,-0.000063,-0.000199,-0.952853,0.000336,0.001031,-0.303431,-0.001602,-0.001353,-0.000265,0.000000,0.000000,0.000000,0.000000,2,3,217,4,4,3
1.975000,4,1,1,1,0,60.000000,-577.000000,124.000000,68.000000,0.548387,29.000000,97.000000,358.000000,482.000000,15.000000,15.000000,13.591419,-42.477200,6.346127,3.227348,-3.553699,0.314225,-0.294658,0.018158,-0.017027,15.000000,-0.772652,-3.553699,1.133959,-0.436836,0.000000,0.000000,0.000000,-0.017768,0.000000,-0.634700,-0.634658,12600,2812,0,6774,2,0,0,3533,-0.001223,-0.000836,-0.000042,-0.001212,-0.001755,-0.000429,0,0,-1000,0,0,0,701,0,0.003055,-0.033879,0,0,51,-0.000147,-0.032940,691.783569,715.886841,-6.764936,0.027430,-0.000262,-0.000160,-0.952853,0.000336,0.001031,-0.303431,-0.001602,-0.001353,-0.000265,0.000000,0.000000,0.000000,0.000000,2,3,217,4,4,3
2.046000,4,0,1,1,0,53.000000,-584.000000,118.000000,64.000000,0.542373,24.000000,88.000000,354.000000,472.000000,15.000000,15.000000,13.591417,-42.992401,6.346131,4.038062,-4.843735,0.486791,-0.481697,0.035918,-0.035608,15.000000,0.038062,-4.843735,1.133958,-0.436837,0.000000,0.000000,0.072002,-0.212691,0.000000,-0.642400,-0.642364,12600,2812,0,6774,2,0,0,3533,-0.001216,-0.000837,-0.000036,0.002573,-0.000254,-0.000368,0,0,-1000,0,0,0,701,0,-0.005235,0.028348,0,0,51,-0.006240,0.028414,691.784058,715.886780,-6.764933,0.027610,-0.000536,0.000188,-0.952853,0.000336,0.001031,-0.303431,-0.001602,-0.001353,-0.000265,0.000000,0.000000,0.000000,0.000000,2,3,217,4,4,3
2.118000,4,0,0,-1,0,53.000000,-584.000000,118.000000,64.000000,0.542373,24.000000,88.000000,354.000000,472.000000,15.000000,15.000000,13.591417,-42.992401,6.346131,4.038062,-4.843735,0.486791,-0.481697,0.035918,-0.035608,15.000000,0.038062,-4.843735,1.133958,-0.436837,0.000000,0.000000,0.000000,0.000000,0.000000,-0.642400,-0.642383,12600,2812,0,6774,2,0,0,3533,-0.001189,-0.000829,-0.000017,0.000642,-0.000270,-0.000026,0,0,-1001,1,0,1,701,0,-0.000410,-0.003474,0,0,51,0.002394,-0.003421,691.783875,715.886719,-6.764916,0.027338,-0.000794,0.000114,-0.952853,0.000336,0.001031,-0.303431,-0.001602,-0.001353,-0.000265,0.000000,0.000000,0.000000,0.000000,2,3,217,4,4,3
2.187000,4,0,0,-1,0,53.000000,-584.000000,118.000000,64.000000,0.542373,24.000000,88.000000,354.000000,472.000000,15.000000,15.000000,13.591417,-42.992401,6.346131,4.038062,-4.843735,0.486791,-0.481697,0.035918,-0.035608,15.000000,0.038062,-4.843735,1.133958,-0.436837,0.000000,0.000000,0.000000,0.000000,0.000000,-0.642400,-0.642423,12600,2812,0,6774,2,0,0,3533,-0.001214,-0.000913,0.000023,-0.000445,0.000846,-0.000016,0,0,-1001,0,1,1,701,0,-0.000410,-0.003474,0,0,51,0.002394,-0.003421,691.783997,715.886658,-6.764917,0.027364,-0.001013,-0.000169,-0.952853,0.000336,0.001031,-0.303431,-0.001602,-0.001353,-0.000265,0.000000,0.000000,0.000000,0.000000,2,3,217,4,4,3
2.260000,4,0,0,-1,0,53.000000,-584.000000,118.000000,64.000000,0.542373,24.000000,88.000000,354.000000,472.000000,15.000000,15.000000,13.591417,-42.992401,6.346131,4.038062,-4.843735,0.486791,-0.481697,0.035918,-0.035608,15.000000,0.038062,-4.843735,1.133958,-0.436837,0.000000,0.000000,0.000000,0.000000,0.000000,-0.642400,-0.642441,12600,2812,0,6774,2,0,0,3533,-0.001155,-0.000965,0.000041,0.000532,-0.001305,-0.000371,0,0,-1001,1,0,0,701,0,0.008841,-0.014352,0,0,51,0.009732,-0.016991,691.784363,715.886597,-6.764922,0.027560,-0.001124,-0.000189,-0.952853,0.000336,0.001031,-0.303431,-0.001602,-0.001353,-0.000265,0.000000,0.000000,0.000000,0.000000,2,3,217,4,4,3
2.329000,4,0,1,1,0,69.000000,-605.000000,130.000000,68.000000,0.523077,1.000000,69.000000,364.000000,494.000000,15.000000,15.000000,13.591417,-42.992401,6.346131,4.038062,-4.843735,0.486791,-0.481697,0.035918,-0.035608,15.000000,0.038062,-4.843735,1.133958,-0.436837,0.000000,0.000000,0.019078,-0.145312,0.000000,-0.665500,-0.664997,12600,2812,0,6774,2,0,0,3530,-0.001089,-0.000923,-0.000503,0.000422,0.001486,-0.016899,0,0,-1001,1,2,-15,701,0,0.010921,0.041176,0,0,51,0.011610,0.038547,691.784180,715.886536,-6.764935,0.027382,-0.001200,-0.000342,-0.952853,0.000336,0.001031,-0.303431,-0.001602,-0.001353,-0.000265,0.000000,0.000000,0.000000,0.000000,2,3,217,4,4,3
2.397000,4,0,1,1,0,64.500000,-606.000000,131.000000,68.000000,0.519084,0.000000,68.000000,359.000000,490.000000,15.000000,15.000000,13.591417,-42.992401,6.346131,4.038062,-4.843735,0.486791,-0.481697,0.035918,-0.035608,15.000000,0.038062,-4.843735,1.133958,-0.436837,0.000000,0.000000,0.019099,-0.145312,0.000000,-0.666600,-0.662107,12600,2812,0,6774,2,0,0,3518,-0.001064,-0.000949,-0.004493,0.000394,-0.002135,-0.075876,0,0,-1001,1,1,-53,701,0,0.033907,0.026804,0,0,51,0.034533,0.027003,691.784363,715.886475,-6.764963,0.027373,-0.001282,-0.000414,-0.952853,0.000336,0.001031,-0.303431,-0.001602,-0.001353,-0.000265,0.000000,0.000000,0.000000,0.000000,2,3,217,4,4,3
2.466000,4,0,1,1,0,55.500000,-604.500000,137.000000,71.000000,0.518248,0.000000,71.000000,347.000000,484.000000,15.000000,15.000000,13.591417,-42.992401,6.346131,4.038062,-4.843735,0.486791,-0.481697,0.035918,-0.035608,15.000000,0.038062,-4.843735,1.133958,-0.436837,0.000000,0.000000,0.019120,-0.145312,0.000000,-0.664950,-0.655328,12600,2812,0,6774,2,0,0,3478,-0.001028,-0.000959,-0.009622,0.000927,0.000220,-0.113139,0,0,-1001,1,1,-111,701,0,0.033907,0.026804,0,0,51,0.034533,0.027003,691.784912,715.886414,-6.764986,0.027638,-0.001332,-0.000423,-0.952853,0.000336,0.001031,-0.303431,-0.001602,-0.001353,-0.000265,0.000000,0.000000,0.000000,0.000000,2,3,217,4,4,3
2.533000,4,0,1,1,0,50.500000,-599.000000,121.000000,66.000000,0.545455,8.000000,74.000000,350.000000,471.000000,15.000000,15.000000,13.591417,-42.992401,6.346131,4.038062,-4.843735,0.486791,-0.481697,0.035918,-0.035608,15.000000,0.038062,-4.843735,1.133958,-0.436837,0.000000,0.000000,0.019139,-0.145312,0.000000,-0.658900,-0.638615,12600,2812,0,6775,2,0,0,3417,-0.001501,-0.000987,-0.020285,-0.011292,-0.000985,-0.160407,0,0,-1001,-10,0,-159,701,0,0.041976,0.047007,0,0,51,0.037239,0.047275,691.784546,715.886353,-6.764997,0.027433,-0.001408,-0.000352,-0.952853,0.000336,0.001031,-0.303431,-0.001602,-0.001353,-0.000265,0.000000,0.000000,0.000000,0.000000,2,3,217,4,4,3
2.602000,4,0,0,-1,0,50.500000,-599.000000,121.000000,66.000000,0.545455,8.000000,74.000000,350.000000,471.000000,15.000000,15.000000,13.591417,-42.992401,6.346131,4.038062,-4.843735,0.486791,-0.481697,0.035918,-0.035608,15.000000,0.038062,-4.843735,1.133958,-0.436837,0.000000,0.000000,0.000000,0.000000,0.000000,-0.658900,-0.622471,12600,2812,0,6775,2,0,0,3324,-0.002463,-0.001106,-0.036429,-0.016049,-0.001166,-0.247578,0,0,-1001,-15,0,-246,701,0,0.041976,0.047007,0,0,51,0.037239,0.047275,691.784912,715.886292,-6.765025,0.027838,-0.001872,-0.000438,-0.952853,0.000336,0.001031,-0.303431,-0.001602,-0.001353,-0.000265,0.000000,0.000000,0.000000,0.000000,2,3,217,4,4,3
2.658000,4,0,0,-1,0,50.500000,-599.000000,121.000000,66.000000,0.545455,8.000000,74.000000,350.000000,471.000000,15.000000,15.000000,13.591417,-42.992401,6.346131,4.038062,-4.843735,0.486791,-0.481697,0.035918,-0.035608,15.000000,0.038062,-4.843735,1.133958,-0.436837,0.000000,0.000000,0.000000,0.000000,0.000000,-0.658900,-0.607370,12600,2812,0,6775,2,0,0,3238,-0.003103,-0.001127,-0.051530,-0.012089,0.000657,-0.323808,0,0,-1001,-11,1,-322,701,0,-0.006418,0.031840,0,0,51,-0.018437,0.030302,691.785217,715.886169,-6.765045,0.028571,-0.002750,-0.000400,-0.952853,0.000336,0.001031,-0.303431,-0.001602,-0.001353,-0.000265,0.000000,0.000000,0.000000,0.000000,2,3,217,4,4,3
2.725000,4,0,1,1,0,60.000000,-545.500000,120.000000,51.000000,0.425000,69.000000,120.000000,360.000000,480.000000,15.000000,15.000000,13.573114,-40.158798,6.385184,4.764871,-6.074018,0.681714,-0.690182,0.060923,-0.061253,15.000000,0.764871,-6.074018,1.131083,-0.439712,0.000000,0.000000,1.463271,-0.200506,0.000000,-0.600050,-0.519071,12600,2812,0,6775,3,0,0,3069,-0.009916,-0.003712,-0.080979,-0.159789,-0.061067,-0.444236,0,0,-1001,-158,-59,-442,701,0,0.035066,0.028684,0,0,51,-0.047768,0.000890,691.785034,715.886047,-6.765058,0.029297,-0.003955,-0.000406,-0.952853,0.000336,0.001031,-0.303431,-0.001602,-0.001353,-0.000265,0.000000,0.000000,0.000000,0.000000,2,3,217,4,4,3
2.791000,4,0,1,1,0,59.000000,-521.000000,124.000000,54.000000,0.435484,92.000000,146.000000,357.000000,481.000000,15.000000,15.000000,13.544166,-38.355602,6.446362,5.425472,-7.269125,0.894211,-0.918393,0.093388,-0.094517,15.000000,1.425472,-7.269125,1.126571,-0.444224,0.000000,0.000000,1.701699,-0.235940,0.000000,-0.573100,-0.467261,12600,2812,0,6775,3,-1,0,2926,-0.019877,-0.008224,-0.105839,-0.195515,-0.082893,-0.519155,0,0,-1000,-194,-81,-517,701,0,0.035066,0.028684,0,0,51,-0.047768,0.000890,691.785522,715.885620,-6.765075,0.036255,-0.010149,-0.000265,-0.952853,0.000336,0.001031,-0.303431,-0.001602,-0.001353,-0.000265,0.000000,0.000000,0.000000,0.000000,2,3,217,4,4,3
2.858000,4,0,1,1,0,59.500000,-506.500000,125.000000,65.000000,0.520000,101.000000,166.000000,357.000000,482.000000,15.000000,15.000000,13.503771,-37.288403,6.530556,6.032924,-8.447404,1.120176,-1.165938,0.133186,-0.135961,15.000000,2.032924,-8.447404,1.120345,-0.450450,0.000000,0.000000,1.915113,-0.270804,0.000000,-0.557150,-0.409448,12600,2812,0,6775,5,-2,0,2687,-0.030900,-0.014450,-0.147702,-0.121217,-0.054986,-0.574013,0,0,-1000,-120,-53,-572,702,0,-0.039345,0.000231,0,0,51,-0.230493,-0.082287,691.787231,715.884460,-6.765076,0.051821,-0.022815,-0.000095,-0.952853,0.000336,0.001031,-0.303431,-0.001602,-0.001353,-0.000265,0.000000,0.000000,0.000000,0.000000,2,3,217,4,4,3
2.923000,4,0,1,1,0,50.500000,-486.500000,119.000000,53.000000,0.445378,127.000000,180.000000,351.000000,470.000000,15.000000,15.000000,13.479956,-35.816399,6.579575,6.598858,-9.585519,1.356792,-1.424495,0.180057,-0.184492,15.000000,2.598858,-9.585519,1.116712,-0.454083,0.000000,0.000000,2.169096,-0.304975,0.000000,-0.535150,-0.345449,12600,2812,0,6775,7,-3,0,2446,-0.034716,-0.018083,-0.189701,-0.030257,-0.016780,-0.546415,0,0,-1002,-56,-27,-562,702,0,0.053943,0.025946,0,0,51,-0.011831,-0.007226,691.788818,715.883057,-6.765061,0.064901,-0.033534,-0.000098,-0.952853,0.000336,0.001031,-0.303431,-0.001602,-0.001353,-0.000265,0.000000,0.000000,0.000000,0.000000,2,3,217,4,4,3
2.989000,4,0,0,-1,0,50.500000,-486.500000,119.000000,53.000000,0.445378,127.000000,180.000000,351.000000,470.000000,15.000000,15.000000,13.479956,-35.816399,6.579575,6.598858,-9.585519,1.356792,-1.424495,0.180057,-0.184492,15.000000,2.598858,-9.585519,1.116712,-0.454083,0.000000,0.000000,0.000000,0.000000,0.000000,-0.535150,-0.320301,12600,2812,0,6775,8,-5,0,2302,-0.032761,-0.016814,-0.214849,0.060451,0.079934,-0.495916,-1,1,-1001,61,81,-494,702,0,0.053943,0.025946,0,0,51,-0.011831,-0.007226,691.792847,715.879944,-6.765071,0.085217,-0.050141,-0.000125,-0.952853,0.000336,0.001031,-0.303431,-0.001602,-0.001353,-0.000265,0.000000,0.000000,0.000000,0.000000,2,3,217,4,4,3
3.055000,4,0,0,-1,0,50.500000,-486.500000,119.000000,53.000000,0.445378,127.000000,180.000000,351.000000,470.000000,15.000000,15.000000,13.479956,-35.816399,6.579575,6.598858,-9.585519,1.356792,-1.424495,0.180057,-0.184492,15.000000,2.598858,-9.585519,1.116712,-0.454083,0.000000,0.000000,0.000000,0.000000,0.000000,-0.535150,-0.286266,12600,2812,0,6775,10,-6,0,2107,-0.025501,-0.009522,-0.248884,0.097554,0.115199,-0.431350,-1,2,-1001,98,116,-430,702,0,-0.035288,0.030702,0,0,51,0.048635,0.132373,691.797241,715.876648,-6.765159,0.097609,-0.062071,-0.000173,-0.952853,0.000336,0.001031,-0.303431,-0.001602,-0.001353,-0.000265,0.000000,0.000000,0.000000,0.000000,2,3,217,4,4,3
3.122000,4,0,1,0,0,-0.500000,-413.000000,123.000000,46.000000,0.373984,204.000000,250.000000,298.000000,421.000000,15.000000,15.000000,13.579226,-30.406801,6.372176,7.139502,-10.513036,1.605394,-1.648206,0.234397,-0.230367,15.000000,3.139502,-10.513036,1.132041,-0.438754,0.000000,0.000000,2.376209,-0.329129,0.000000,-0.454300,-0.173774,12600,2812,0,6775,10,-7,0,1926,-0.018956,-0.002754,-0.280526,0.075305,0.085158,-0.419594,-1,2,-1001,85,102,-416,701,0,0.030342,0.051873,0,0,51,0.117705,0.156657,691.802368,715.872437,-6.765302,0.105489,-0.073438,-0.000299,-0.952853,0.000336,0.001031,-0.303431,-0.001602,-0.001353,-0.000265,0.000000,0.000000,0.000000,0.000000,2,3,217,4,4,3
3.189000,4,0,1,0,0,-16.000000,-399.000000,132.000000,60.000000,0.454545,211.000000,271.000000,278.000000,410.000000,15.000000,15.000000,13.598529,-29.376202,6.330877,7.654832,-11.402246,1.860772,-1.874938,0.294982,-0.280715,15.000000,3.654832,-11.402246,1.135080,-0.435715,0.000000,0.000000,2.596343,-0.355204,0.000000,-0.438900,-0.136688,12600,2812,0,6775,10,-8,0,1801,-0.015822,0.000285,-0.302212,0.056778,0.061091,-0.439860,-1,2,-1000,57,62,-438,701,0,0.030342,0.051873,0,0,51,0.117705,0.156657,691.808838,715.866821,-6.765508,0.108578,-0.083828,-0.000275,-0.952853,0.000336,0.001031,-0.303431,-0.001602,-0.001353,-0.000265,0.000000,0.000000,0.000000,0.000000,2,3,217,4,4,3
3.260000,4,0,1,0,0,-26.000000,-386.000000,126.000000,66.000000,0.523810,221.000000,287.000000,271.000000,397.000000,15.000000,15.000000,13.613413,-28.416801,6.298810,8.148837,-12.250890,2.120258,-2.101986,0.360885,-0.334581,15.000000,4.148837,-12.250890,1.137437,-0.433358,0.000000,0.000000,2.779285,-0.379466,0.000000,-0.424600,-0.086650,12600,2812,0,6775,10,-9,0,1597,-0.012641,0.002642,-0.337950,0.036011,0.026674,-0.498160,-1,2,-1000,36,27,-496,701,0,0.009407,0.031108,0,0,51,0.060844,0.082046,691.815979,715.860229,-6.765612,0.107971,-0.092518,-0.000217,-0.952853,0.000336,0.001031,-0.303431,-0.001602,-0.001353,-0.000265,0.000000,0.000000,0.000000,0.000000,2,3,217,4,4,3
3.328000,4,0,1,0,0,-26.000000,-383.500000,122.000000,65.000000,0.532787,224.000000,289.000000,273.000000,395.000000,15.000000,15.000000,13.615808,-28.232300,6.293628,8.623776,-13.089932,2.380812,-2.336653,0.430884,-0.393561,15.000000,4.623776,-13.089932,1.137818,-0.432977,0.000000,0.000000,3.015173,-0.404906,0.000000,-0.421850,-0.044825,12600,2812,0,6775,10,-9,0,1373,-0.010833,0.003023,-0.377025,0.019960,0.003081,-0.526771,-1,2,-1000,20,4,-525,701,0,-0.029464,0.022510,0,0,51,-0.002748,0.034016,691.819580,715.856201,-6.765646,0.106293,-0.096710,-0.000068,-0.952853,0.000336,0.001031,-0.303431,-0.001602,-0.001353,-0.000265,0.000000,0.000000,0.000000,0.000000,2,3,217,4,4,3
3.398000,4,0,1,0,0,-19.500000,-378.000000,123.000000,58.000000,0.471545,233.000000,291.000000,279.000000,402.000000,15.000000,15.000000,13.560171,-27.826401,6.412625,9.077810,-13.905664,2.637090,-2.573823,0.502876,-0.456014,15.000000,5.077810,-13.905664,1.129060,-0.441735,0.000000,0.000000,3.201642,-0.428810,0.000000,-0.415800,0.000077,12600,2812,0,6775,10,-10,0,1150,-0.009771,-0.005735,-0.415877,0.011991,-0.187512,-0.504456,-1,2,-1000,13,-114,-512,701,0,-0.029464,0.022510,0,0,51,-0.002748,0.034016,691.825806,715.849243,-6.765674,0.104163,-0.102538,0.000134,-0.952853,0.000336,0.001031,-0.303431,-0.001602,-0.001353,-0.000265,0.000000,0.000000,0.000000,0.000000,2,3,217,4,4,3
3.456000,4,0,1,0,0,-18.000000,-368.500000,120.000000,45.000000,0.375000,249.000000,294.000000,282.000000,402.000000,15.000000,15.000000,13.462604,-27.125299,6.615006,9.509446,-14.680321,2.884178,-2.806583,0.574658,-0.519512,15.000000,5.509446,-14.680321,1.114082,-0.456713,0.000000,0.000000,3.509361,-0.453648,0.000000,-0.405350,0.034985,12600,2812,0,6775,11,-10,0,1010,-0.008876,-0.020713,-0.440335,0.011434,-0.332975,-0.488322,-1,2,-1000,12,-331,-487,701,0,0.065038,0.041603,0,0,51,0.077400,-0.126108,691.830566,715.843994,-6.765661,0.107118,-0.105299,0.000332,-0.952853,0.000336,0.001031,-0.303431,-0.001602,-0.001353,-0.000265,0.000000,0.000000,0.000000,0.000000,2,3,217,4,4,3
3.524000,4,0,1,1,0,-6.000000,-364.000000,124.000000,48.000000,0.387097,252.000000,300.000000,292.000000,416.000000,15.000000,15.000000,13.231800,-26.793201,7.065371,9.909989,-15.429385,3.111859,-3.038650,0.642067,-0.584732,15.000000,5.909989,-15.429385,1.080343,-0.490452,0.000000,0.000000,3.560373,-0.473833,0.000000,-0.400400,0.075719,12600,2812,0,6775,13,-10,0,805,-0.006712,-0.054452,-0.476119,0.010303,-0.498166,-0.477948,-1,2,-1001,11,-450,-478,702,0,0.010183,0.036001,0,0,51,0.021284,-0.403844,691.836975,715.836914,-6.765608,0.124656,-0.105830,0.000618,-0.952853,0.000336,0.001031,-0.303431,-0.001602,-0.001353,-0.000265,0.000000,0.000000,0.000000,0.000000,2,3,217,4,4,3
3.593000,4,0,1,0,0,-5.000000,-360.500000,124.000000,53.000000,0.427419,253.000000,306.000000,293.000000,417.000000,15.000000,15.000000,13.022416,-26.534901,7.444238,10.281310,-16.154263,3.318288,-3.269464,0.703592,-0.651102,15.000000,6.281310,-16.154263,1.051484,-0.519311,0.000000,0.000000,3.696541,-0.495036,0.000000,-0.396550,0.104446,12600,2812,0,6775,16,-10,0,662,-0.004574,-0.083311,-0.500996,0.006492,-0.563619,-0.475382,-2,2,-1002,7,-562,-474,704,0,0.010183,0.036001,0,0,51,0.021284,-0.403844,691.847717,715.828674,-6.765524,0.175836,-0.101270,0.001380,-0.952853,0.000336,0.001031,-0.303431,-0.001602,-0.001353,-0.000265,0.000000,0.000000,0.000000,0.000000,2,3,217,4,4,3
3.659000,4,0,1,0,0,-1.000000,-366.500000,128.000000,77.000000,0.601562,235.000000,312.000000,295.000000,423.000000,15.000000,13.422513,11.344007,-17.380669,7.174773,10.514478,-16.375538,3.409247,-3.322845,0.723995,-0.658200,13.422513,6.514478,-16.375538,1.006840,-0.563955,0.000000,0.000000,3.632372,-0.494584,0.000000,-0.403150,0.133192,12600,2812,0,6775,24,-9,0,460,-0.000687,-0.127955,-0.536342,0.000528,-0.605948,-0.464644,-4,2,-1006,1,-604,-463,704,0,0.064516,-0.013865,0,0,51,0.070207,-0.589902,691.861084,715.822205,-6.765442,0.247315,-0.093916,0.002447,-0.952853,0.000336,0.001031,-0.303431,-0.001602,-0.001353,-0.000265,0.000000,0.000000,0.000000,0.000000,2,3,217,4,4,3
3.725000,4,0,1,0,0,-5.000000,-365.500000,130.000000,67.000000,0.515385,241.000000,308.000000,290.000000,420.000000,15.000000,15.000000,12.296892,-26.903900,8.589904,10.807573,-17.112713,3.550905,-3.571538,0.763794,-0.733984,15.000000,6.807573,-17.112713,0.961048,-0.609747,0.000000,0.000000,3.875407,-0.524532,0.000000,-0.402050,0.167467,12600,2812,0,6775,35,-8,0,270,0.004300,-0.173747,-0.569517,0.000312,-0.612125,-0.416208,-7,2,-1012,1,-611,-414,708,0,0.019006,0.043160,0,0,51,0.018796,-0.570056,691.873535,715.818115,-6.765317,0.311834,-0.087673,0.003275,-0.952853,0.000336,0.001031,-0.303431,-0.001602,-0.001353,-0.000265,0.000000,0.000000,0.000000,0.000000,2,3,217,4,4,3
3.790000,4,0,1,0,0,-10.500000,-369.500000,117.000000,59.000000,0.504274,241.000000,300.000000,291.000000,408.000000,15.000000,15.000000,12.036087,-27.199100,8.951682,11.067029,-17.850689,3.661077,-3.826756,0.791712,-0.812746,15.000000,7.067029,-17.850689,0.931314,-0.639481,0.000000,0.000000,3.962415,-0.546838,0.000000,-0.406450,0.182601,12600,2812,0,6775,43,-7,0,158,0.005947,-0.203481,-0.589051,-0.058837,-0.589416,-0.366630,-9,2,-1017,-57,-588,-365,716,0,0.019006,0.043160,0,0,51,0.018796,-0.570056,691.900330,715.812256,-6.765271,0.439856,-0.076854,0.004602,-0.952853,0.000336,0.001031,-0.303431,-0.001602,-0.001353,-0.000265,0.000000,0.000000,0.000000,0.000000,2,3,217,4,4,3
3.856000,4,0,1,1,0,-24.500000,-369.500000,119.000000,49.000000,0.411765,246.000000,295.000000,276.000000,395.000000,15.000000,15.000000,11.657563,-27.199100,9.439344,11.283057,-18.571167,3.729737,-4.080739,0.803260,-0.891379,15.000000,7.283057,-18.571167,0.890156,-0.680639,0.000000,0.000000,4.002552,-0.568048,0.000000,-0.406450,0.206997,12600,2812,0,6775,59,-6,0,18,0.000588,-0.244639,-0.613447,-0.197217,-0.523298,-0.286435,-13,1,-1025,-196,-522,-285,720,0,0.036646,0.090697,0,0,51,-0.043009,-0.490684,691.925476,715.808594,-6.765194,0.547734,-0.071113,0.005503,-0.952853,0.000336,0.001031,-0.303431,-0.001602,-0.001353,-0.000265,0.000000,0.000000,0.000000,0.000000,2,3,217,4,4,3
3.922000,4,0,1,1,0,-34.000000,-375.500000,116.000000,43.000000,0.370690,243.000000,286.000000,268.000000,384.000000,15.000000,15.000000,11.350813,-27.641901,9.806073,11.460935,-19.298988,3.760996,-4.343013,0.799650,-0.973162,15.000000,7.460935,-19.298988,0.858281,-0.712514,0.000000,0.000000,4.034960,-0.589932,0.000000,-0.413050,0.218618,12600,2812,0,6774,78,-7,0,35915,-0.013620,-0.276514,-0.631668,-0.250833,-0.359067,-0.208732,-17,1,-1031,-271,-414,-232,725,0,0.044081,0.085552,0,0,51,-0.223599,-0.353752,691.969421,715.803833,-6.764920,0.717855,-0.071777,0.006051,-0.952853,0.000336,0.001031,-0.303431,-0.001602,-0.001353,-0.000265,0.000000,0.000000,0.000000,0.000000,2,3,217,4,4,3
3.989000,4,0,1,1,0,-42.000000,-386.000000,126.000000,48.000000,0.380952,230.000000,278.000000,255.000000,381.000000,15.000000,15.000000,11.217091,-28.416801,9.958759,11.614533,-20.053093,3.767623,-4.621461,0.785881,-1.060887,15.000000,7.614533,-20.053093,0.844750,-0.726045,0.000000,0.000000,4.073983,-0.612755,0.000000,-0.424600,0.215931,12600,2812,0,6774,91,-8,0,35864,-0.023398,-0.290045,-0.640531,-0.240181,-0.233834,-0.160471,-23,1,-1038,-239,-232,-159,732,0,0.044081,0.085552,0,0,51,-0.223599,-0.353752,692.028809,715.798279,-6.764893,0.912411,-0.086776,0.005448,-0.952853,0.000336,0.001031,-0.303431,-0.001602,-0.001353,-0.000265,0.000000,0.000000,0.000000,0.000000,2,3,217,4,4,3
4.056000,4,0,1,0,0,-54.500000,-396.500000,125.000000,57.000000,0.456000,215.000000,272.000000,243.000000,368.000000,15.000000,15.000000,11.108728,-29.191700,10.079492,11.745865,-20.832451,3.751593,-4.915798,0.762689,-1.154249,15.000000,7.745865,-20.832451,0.833935,-0.736860,0.000000,0.000000,4.109824,-0.636533,0.000000,-0.436150,0.213426,12600,2812,0,6774,111,-11,0,35812,-0.035247,-0.300860,-0.649576,-0.163049,-0.098739,-0.095867,-29,1,-1041,-162,-97,-94,734,0,0.020824,0.077004,0,0,51,-0.191336,-0.122116,692.079346,715.793518,-6.764996,1.053945,-0.105100,0.004292,-0.952853,0.000336,0.001031,-0.303431,-0.001602,-0.001353,-0.000265,0.000000,0.000000,0.000000,0.000000,2,3,217,4,4,3
4.123000,4,0,1,0,0,-58.500000,-401.000000,133.000000,62.000000,0.466165,208.000000,270.000000,235.000000,368.000000,15.000000,15.000000,11.064873,-29.523602,10.127615,11.860465,-21.608265,3.718475,-5.213060,0.732425,-1.247968,15.000000,7.860465,-21.608265,0.829594,-0.741201,0.000000,0.000000,4.145301,-0.659778,0.000000,-0.441100,0.213305,12600,2812,0,6775,131,-15,0,35784,-0.042503,-0.305201,-0.654405,-0.087861,-0.041913,-0.040495,-33,1,-1042,-112,-52,-56,736,0,0.047683,0.176748,0,0,51,-0.077548,0.118760,692.159851,715.784912,-6.765055,1.249113,-0.138441,0.002205,-0.952853,0.000336,0.001031,-0.303431,-0.001602,-0.001353,-0.000265,0.000000,0.000000,0.000000,0.000000,2,3,217,4,4,3
4.190000,4,0,1,0,0,-59.000000,-407.500000,132.000000,61.000000,0.462121,202.000000,263.000000,235.000000,367.000000,15.000000,15.000000,11.051291,-30.001999,10.142434,11.961122,-22.388922,3.671301,-5.516547,0.696436,-1.343130,15.000000,7.961122,-22.388922,0.828254,-0.742541,0.000000,0.000000,4.176952,-0.683226,0.000000,-0.448250,0.207163,12600,2812,0,6775,144,-17,0,35779,-0.045974,-0.306541,-0.655413,-0.065942,-0.024054,-0.007834,-40,2,-1040,-64,-23,-6,737,0,0.047683,0.176748,0,0,51,-0.077548,0.118760,692.258118,715.773254,-6.765418,1.448880,-0.178243,0.000019,-0.952853,0.000336,0.001031,-0.303431,-0.001602,-0.001353,-0.000265,0.000000,0.000000,0.000000,0.000000,2,3,217,4,4,3
4.245000,4,0,1,0,0,-53.000000,-406.000000,128.000000,46.000000,0.359375,211.000000,257.000000,243.000000,371.000000,15.000000,15.000000,11.038806,-29.891600,10.156022,12.048201,-23.135262,3.610791,-5.807159,0.655110,-1.431947,15.000000,8.048201,-23.135262,0.827024,-0.743771,0.000000,0.000000,4.230110,-0.707514,0.000000,-0.446600,0.207347,12600,2812,0,6775,157,-20,0,35782,-0.049684,-0.307771,-0.653947,-0.034182,-0.022560,0.035909,-44,2,-1038,-43,-14,22,737,0,0.004364,0.187125,0,0,51,-0.050938,0.165728,692.338501,715.762939,-6.765883,1.590851,-0.208723,-0.001444,-0.952853,0.000336,0.001031,-0.303431,-0.001602,-0.001353,-0.000265,0.000000,0.000000,0.000000,0.000000,2,3,217,4,4,3
4.310000,4,0,0,-1,0,-53.000000,-406.000000,128.000000,46.000000,0.359375,211.000000,257.000000,243.000000,371.000000,15.000000,15.000000,11.038806,-29.891600,10.156022,12.048201,-23.135262,3.610791,-5.807159,0.655110,-1.431947,15.000000,8.048201,-23.135262,0.827024,-0.743771,0.000000,0.000000,0.000000,0.000000,0.000000,-0.446600,0.204654,12600,2812,0,6776,176,-24,0,35802,-0.051632,-0.308980,-0.651254,-0.018857,-0.033410,0.062964,-51,3,-1036,-17,-32,64,738,0,0.021059,0.238599,0,0,51,-0.000781,0.207877,692.451904,715.747498,-6.766510,1.769472,-0.248921,-0.003053,-0.952853,0.000336,0.001031,-0.303431,-0.001602,-0.001353,-0.000265,0.000000,0.000000,0.000000,0.000000,2,3,217,4,4,3
4.375000,4,0,1,0,0,-48.000000,-390.000000,130.000000,46.000000,0.353846,227.000000,273.000000,247.000000,377.000000,15.000000,15.000000,10.998010,-28.712002,10.200185,12.119541,-23.776161,3.535221,-6.048933,0.607789,-1.499937,15.000000,8.119541,-23.776161,0.823016,-0.747779,0.000000,0.000000,4.219654,-0.723034,0.000000,-0.429000,0.215484,12600,2812,0,6777,195,-29,0,35841,-0.053385,-0.311779,-0.644484,0.014220,-0.048256,0.101836,-57,5,-1034,15,-47,103,739,0,0.021059,0.238599,0,0,51,-0.000781,0.207877,692.540649,715.734802,-6.766994,1.895334,-0.277669,-0.003635,-0.952853,0.000336,0.001031,-0.303431,-0.001602,-0.001353,-0.000265,0.000000,0.000000,0.000000,0.000000,2,3,217,4,4,3
4.440000,4,0,1,0,0,-52.000000,-385.000000,128.000000,54.000000,0.421875,228.000000,282.000000,244.000000,372.000000,15.000000,15.000000,10.975572,-28.342999,10.224325,12.177307,-24.366386,3.447206,-6.266598,0.555743,-1.557141,15.000000,8.177307,-24.366386,0.820818,-0.749977,0.000000,0.000000,4.230322,-0.739988,0.000000,-0.423500,0.214701,12600,2812,0,6777,208,-31,0,35877,-0.053745,-0.313977,-0.638201,0.037669,-0.053204,0.126641,-62,6,-1033,38,-52,127,741,0,0.038076,0.300775,0,0,51,0.056271,0.250406,692.696167,715.711365,-6.767961,2.094870,-0.322090,-0.004286,-0.952853,0.000336,0.001031,-0.303431,-0.001602,-0.001353,-0.000265,0.000000,0.000000,0.000000,0.000000,2,3,217,4,4,3
4.504000,4,0,1,0,0,-66.500000,-370.000000,127.000000,72.000000,0.566929,234.000000,306.000000,230.000000,357.000000,15.000000,14.210005,10.360391,-21.897213,9.725561,12.167636,-24.491964,3.293792,-6.247756,0.475704,-1.518286,14.210005,8.167636,-24.491964,0.816992,-0.753803,0.000000,0.000000,4.124429,-0.736713,0.000000,-0.407000,0.219434,12600,2812,0,6778,226,-35,0,35945,-0.054089,-0.317803,-0.626434,0.046957,-0.068089,0.162509,-68,7,-1031,47,-67,163,742,0,0.038076,0.300775,0,0,51,0.056271,0.250406,692.789917,715.697083,-6.768502,2.205381,-0.345476,-0.004454,-0.952853,0.000336,0.001031,-0.303431,-0.001602,-0.001353,-0.000265,0.000000,0.000000,0.000000,0.000000,2,3,217,4,4,3
4.569000,4,0,1,0,0,-83.000000,-363.000000,126.000000,64.000000,0.507937,245.000000,309.000000,214.000000,340.000000,15.000000,15.000000,10.886257,-26.719400,10.319371,12.198470,-24.938557,3.183995,-6.392491,0.416482,-1.545962,15.000000,8.198470,-24.938557,0.812123,-0.758672,0.000000,0.000000,4.203751,-0.754931,0.000000,-0.399300,0.212540,12600,2812,0,6779,238,-38,0,35999,-0.054580,-0.322672,-0.611840,0.053529,-0.078775,0.195563,-73,8,-1029,64,-77,185,743,0,0.013519,0.328304,0,0,51,0.064123,0.262308,692.957092,715.671082,-6.769663,2.388300,-0.381741,-0.004338,-0.952853,0.000336,0.001031,-0.303431,-0.001602,-0.001353,-0.000265,0.000000,0.000000,0.000000,0.000000,2,3,217,4,4,3
4.635000,4,0,1,1,0,-97.000000,-346.000000,118.000000,44.000000,0.372881,272.000000,316.000000,204.000000,322.000000,15.000000,15.000000,10.851238,-25.465599,10.356187,12.216596,-25.274530,3.064001,-6.477433,0.353890,-1.549035,15.000000,8.216596,-25.274530,0.808736,-0.762059,0.000000,0.000000,4.195220,-0.763264,0.000000,-0.380600,0.220084,12600,2812,0,6781,257,-41,0,91,-0.054621,-0.326059,-0.600684,0.086027,-0.082128,0.214233,-80,10,-1028,86,-81,215,745,0,0.064167,0.266809,0,0,51,0.116638,0.188765,693.088684,715.650269,-6.770783,2.522025,-0.405946,-0.003884,-0.952853,0.000336,0.001031,-0.303431,-0.001602,-0.001353,-0.000265,0.000000,0.000000,0.000000,0.000000,2,3,217,4,4,3
4.703000,4,0,0,-1,0,-97.000000,-346.000000,118.000000,44.000000,0.372881,272.000000,316.000000,204.000000,322.000000,15.000000,15.000000,10.851238,-25.465599,10.356187,12.216596,-25.274530,3.064001,-6.477433,0.353890,-1.549035,15.000000,8.216596,-25.274530,0.808736,-0.762059,0.000000,0.000000,0.000000,0.000000,0.000000,-0.380600,0.201544,12600,2812,0,6782,275,-44,0,197,-0.053822,-0.331066,-0.582144,0.105116,-0.082554,0.236951,-87,12,-1027,106,-81,238,746,0,0.064167,0.266809,0,0,51,0.116638,0.188765,693.269470,715.622009,-6.772077,2.693851,-0.433142,-0.003363,-0.952853,0.000336,0.001031,-0.303431,-0.001602,-0.001353,-0.000265,0.000000,0.000000,0.000000,0.000000,2,3,217,4,4,3
4.767000,4,0,1,1,0,-102.000000,-311.500000,126.000000,43.000000,0.341270,307.000000,350.000000,195.000000,321.000000,15.000000,15.000000,10.764450,-22.926399,10.446368,12.217860,-25.410122,2.930133,-6.452191,0.286413,-1.507809,15.000000,8.217860,-25.410122,0.800392,-0.770403,0.000000,0.000000,4.172479,-0.764399,0.000000,-0.342650,0.226829,12600,2812,0,6783,287,-45,0,270,-0.052938,-0.334403,-0.569479,0.120310,-0.081162,0.248028,-91,14,-1026,121,-80,249,747,0,0.025329,0.384841,0,0,51,0.136876,0.301539,693.468750,715.591370,-6.773667,2.870440,-0.455532,-0.002785,-0.952853,0.000336,0.001031,-0.303431,-0.001602,-0.001353,-0.000265,0.000000,0.000000,0.000000,0.000000,2,3,217,4,4,3
4.831000,4,0,1,0,0,-102.000000,-305.500000,126.000000,45.000000,0.357143,312.000000,357.000000,195.000000,321.000000,15.000000,15.000000,10.780772,-22.484800,10.429523,12.213089,-25.500343,2.793715,-6.398930,0.219256,-1.456283,15.000000,8.213089,-25.500343,0.801956,-0.768839,0.000000,0.000000,4.162506,-0.766400,0.000000,-0.336050,0.213195,12600,2812,0,6785,304,-47,0,386,-0.049309,-0.332839,-0.549245,0.157734,0.048319,0.260889,-99,17,-1023,158,49,262,748,0,0.037837,0.370464,0,0,51,0.158263,0.380269,693.612732,715.569397,-6.774823,2.989902,-0.467193,-0.002347,-0.952853,0.000336,0.001031,-0.303431,-0.001602,-0.001353,-0.000265,0.000000,0.000000,0.000000,0.000000,2,3,217,4,4,3
4.897000,4,0,1,1,0,-108.000000,-291.500000,130.000000,53.000000,0.407692,322.000000,375.000000,187.000000,317.000000,15.000000,15.000000,10.879290,-21.454401,10.326715,12.210855,-25.503216,2.663501,-6.293796,0.156364,-1.385243,15.000000,8.210855,-25.503216,0.811448,-0.759347,0.000000,0.000000,4.167077,-0.765140,0.000000,-0.320650,0.208024,12600,2812,0,6786,316,-47,0,464,-0.043612,-0.323347,-0.528674,0.172037,0.140777,0.268526,-103,18,-1021,175,97,267,748,0,0.037837,0.370464,0,0,51,0.158263,0.380269,693.839355,715.535950,-6.776519,3.161525,-0.477366,-0.002354,-0.952853,0.000336,0.001031,-0.303431,-0.001602,-0.001353,-0.000265,0.000000,0.000000,0.000000,0.000000,2,3,217,4,4,3
4.962000,4,0,1,1,0,-123.500000,-285.000000,127.000000,66.000000,0.519685,322.000000,388.000000,173.000000,300.000000,15.000000,15.000000,10.980030,-20.976000,10.219538,12.211699,-25.461649,2.539977,-6.160276,0.097903,-1.304611,15.000000,8.211699,-25.461649,0.821255,-0.749541,0.000000,0.000000,4.173758,-0.763215,0.000000,-0.313500,0.201456,12600,2812,0,6788,331,-47,0,582,-0.040335,-0.313541,-0.514956,0.141650,0.204673,0.269022,-110,21,-1016,142,205,270,745,0,0.121851,0.395543,0,0,51,0.301821,0.523199,694.078430,715.502319,-6.778061,3.319294,-0.478564,-0.002544,-0.952853,0.000336,0.001031,-0.303431,-0.001602,-0.001353,-0.000265,0.000000,0.000000,0.000000,0.000000,2,3,217,4,4,3
5.018000,4,0,1,1,0,-133.500000,-282.000000,123.000000,60.000000,0.487805,328.000000,388.000000,165.000000,288.000000,15.000000,15.000000,11.100934,-20.755199,10.088075,12.217850,-25.396200,2.425258,-6.010036,0.044742,-1.219335,15.000000,8.217850,-25.396200,0.833162,-0.737633,0.000000,0.000000,4.187269,-0.760729,0.000000,-0.310200,0.191504,12600,2812,0,6789,341,-47,0,658,-0.037662,-0.301633,-0.501704,0.140429,0.229286,0.258620,-115,23,-1011,141,230,259,743,0,0.069740,0.387556,0,0,51,0.198163,0.623029,694.269775,715.476562,-6.779626,3.428179,-0.475218,-0.002683,-0.952853,0.000336,0.001031,-0.303431,-0.001602,-0.001353,-0.000265,0.000000,0.000000,0.000000,0.000000,2,3,217,4,4,3
5.084000,4,0,1,1,0,-149.000000,-276.000000,114.000000,38.000000,0.333333,345.000000,383.000000,154.000000,268.000000,15.000000,15.000000,11.273467,-20.313601,9.894896,12.234493,-25.291052,2.324281,-5.834030,-0.001033,-1.126045,15.000000,8.234493,-25.291052,0.850429,-0.720366,0.000000,0.000000,4.211267,-0.757153,0.000000,-0.303600,0.179929,12600,2812,0,6791,354,-46,0,762,-0.026849,-0.284366,-0.483529,0.251262,0.224274,0.234126,-120,25,-1005,252,225,235,743,0,0.069740,0.387556,0,0,51,0.198163,0.623029,694.510071,715.446045,-6.781771,3.544874,-0.464072,-0.002329,-0.952853,0.000336,0.001031,-0.303431,-0.001602,-0.001353,-0.000265,0.000000,0.000000,0.000000,0.000000,2,3,217,4,4,3
5.151000,4,0,0,-1,0,-149.000000,-276.000000,114.000000,38.000000,0.333333,345.000000,383.000000,154.000000,268.000000,15.000000,15.000000,11.273467,-20.313601,9.894896,12.234493,-25.291052,2.324281,-5.834030,-0.001033,-1.126045,15.000000,8.234493,-25.291052,0.850429,-0.720366,0.000000,0.000000,0.000000,0.000000,0.000000,-0.303600,0.163033,12600,2812,0,6793,364,-44,0,859,-0.014458,-0.265501,-0.466633,0.225977,0.270486,0.217145,-125,27,-999,226,271,218,736,0,0.138222,0.420571,0,0,51,0.366417,0.657541,694.675232,715.425903,-6.782967,3.613687,-0.451815,-0.001754,-0.952853,0.000336,0.001031,-0.303431,-0.001602,-0.001353,-0.000265,0.000000,0.000000,0.000000,0.000000,2,3,217,4,4,3
5.224000,4,0,1,1,0,-145.500000,-255.000000,103.000000,40.000000,0.388350,365.000000,405.000000,163.000000,266.000000,15.000000,15.000000,11.642719,-18.768000,9.457647,12.280869,-25.063208,2.255585,-5.583444,-0.031394,-1.005937,15.000000,8.280869,-25.063208,0.888585,-0.682210,0.000000,0.000000,4.274366,-0.748809,0.000000,-0.280500,0.170005,12600,2812,0,6796,373,-41,0,952,-0.003016,-0.246210,-0.450505,0.194925,0.218267,0.208321,-128,29,-996,211,248,211,733,0,0.157789,0.464803,0,0,51,0.365355,0.735514,694.946716,715.395142,-6.785475,3.707357,-0.424448,-0.000440,-0.952853,0.000336,0.001031,-0.303431,-0.001602,-0.001353,-0.000265,0.000000,0.000000,0.000000,0.000000,2,3,217,4,4,3
5.300000,4,0,1,1,0,-152.500000,-240.000000,123.000000,56.000000,0.455285,372.000000,428.000000,146.000000,269.000000,15.000000,15.000000,11.774408,-17.664000,9.293186,12.332315,-24.750692,2.193981,-5.280504,-0.057863,-0.868568,15.000000,8.332315,-24.750692,0.902631,-0.668164,0.000000,0.000000,4.306804,-0.738427,0.000000,-0.264000,0.170474,12600,2812,0,6798,380,-37,0,1044,0.005374,-0.232164,-0.434474,0.130515,0.173080,0.208316,-133,30,-991,131,174,209,730,0,0.157789,0.464803,0,0,51,0.365355,0.735514,695.236694,715.366028,-6.788468,3.785260,-0.387225,0.002020,-0.952853,0.000336,0.001031,-0.303431,-0.001602,-0.001353,-0.000265,0.000000,0.000000,0.000000,0.000000,2,3,217,4,4,3
5.372000,4,0,1,1,0,-152.000000,-231.500000,124.000000,61.000000,0.491935,378.000000,439.000000,146.000000,270.000000,15.000000,15.000000,11.877929,-17.038401,9.160502,12.385954,-24.393881,2.136462,-4.949587,-0.081859,-0.723979,15.000000,8.385954,-24.393881,0.913851,-0.656945,0.000000,0.000000,4.342157,-0.726885,0.000000,-0.254650,0.163622,12600,2812,0,6801,386,-33,0,1136,0.007558,-0.220945,-0.418272,0.048744,0.141428,0.208386,-135,31,-989,68,152,211,729,0,0.173569,0.472776,0,0,51,0.309316,0.652760,695.507690,715.341553,-6.790648,3.843680,-0.348800,0.005222,-0.952853,0.000336,0.001031,-0.303431,-0.001602,-0.001353,-0.000265,0.000000,0.000000,0.000000,0.000000,2,3,217,4,4,3
5.439000,4,0,1,1,0,-152.500000,-227.500000,123.000000,59.000000,0.479675,383.000000,442.000000,146.000000,269.000000,15.000000,15.000000,11.935051,-16.744001,9.085955,12.437201,-24.020828,2.078470,-4.608173,-0.105439,-0.579177,15.000000,8.437201,-24.020828,0.920112,-0.650683,0.000000,0.000000,4.370725,-0.715116,0.000000,-0.250250,0.157563,12600,2812,0,6803,389,-30,0,1196,0.010372,-0.214683,-0.407813,0.113546,0.131137,0.201358,-137,32,-988,114,132,202,729,0,0.133940,0.512349,0,0,51,0.214413,0.638136,695.795715,715.318848,-6.793174,3.894298,-0.307418,0.008760,-0.952853,0.000336,0.001031,-0.303431,-0.001602,-0.001353,-0.000265,0.000000,0.000000,0.000000,0.000000,2,3,217,4,4,3
5.505000,4,0,1,1,0,-149.500000,-216.500000,111.000000,65.000000,0.585586,391.000000,456.000000,155.000000,266.000000,15.000000,15.000000,12.013061,-15.934400,8.982560,12.488393,-23.591814,2.022316,-4.232512,-0.127600,-0.425189,15.000000,8.488393,-23.591814,0.928747,-0.642049,0.000000,0.000000,4.398913,-0.701300,0.000000,-0.238150,0.154229,12600,2812,0,6805,393,-26,1,1285,0.016435,-0.206049,-0.392379,0.107650,0.114873,0.195293,-139,33,-987,108,115,196,727,0,0.133940,0.512349,0,0,51,0.214413,0.638136,695.993042,715.305420,-6.794261,3.923272,-0.277426,0.011527,-0.952853,0.000336,0.001031,-0.303431,-0.001602,-0.001353,-0.000265,0.000000,0.000000,0.000000,0.000000,2,3,217,4,4,3
5.571000,4,0,0,-1,0,-149.500000,-216.500000,111.000000,65.000000,0.585586,391.000000,456.000000,155.000000,266.000000,15.000000,15.000000,12.013061,-15.934400,8.982560,12.488393,-23.591814,2.022316,-4.232512,-0.127600,-0.425189,15.000000,8.488393,-23.591814,0.928747,-0.642049,0.000000,0.000000,0.000000,0.000000,0.000000,-0.238150,0.139142,12600,2812,0,6806,395,-22,1,1342,0.022733,-0.199932,-0.377292,0.114667,0.070001,0.195511,-140,34,-987,118,90,195,727,0,0.129762,0.509737,0,0,51,0.237018,0.626068,696.286926,715.288391,-6.796386,3.958688,-0.229761,0.015231,-0.952853,0.000336,0.001031,-0.303431,-0.001602,-0.001353,-0.000265,0.000000,0.000000,0.000000,0.000000,2,3,217,4,4,3
5.636000,4,0,0,-1,0,-149.500000,-216.500000,111.000000,65.000000,0.585586,391.000000,456.000000,155.000000,266.000000,15.000000,15.000000,12.013061,-15.934400,8.982560,12.488393,-23.591814,2.022316,-4.232512,-0.127600,-0.425189,15.000000,8.488393,-23.591814,0.928747,-0.642049,0.000000,0.000000,0.000000,0.000000,0.000000,-0.238150,0.128890,12600,2812,0,6808,398,-17,1,1430,0.025855,-0.197446,-0.367040,0.084090,0.051684,0.201347,-142,35,-986,84,52,202,727,0,0.204550,0.493325,0,0,51,0.338948,0.550089,696.484436,715.278870,-6.797742,3.978444,-0.195952,0.017646,-0.952853,0.000336,0.001031,-0.303431,-0.001602,-0.001353,-0.000265,0.000000,0.000000,0.000000,0.000000,2,3,217,4,4,3
5.702000,4,0,1,1,0,-156.500000,-160.000000,123.000000,48.000000,0.390244,456.000000,504.000000,142.000000,265.000000,15.000000,15.000000,12.101026,-11.776000,8.863700,12.540647,-22.841444,1.969044,-3.659167,-0.147924,-0.200674,15.000000,8.540647,-22.841444,0.938605,-0.632191,0.000000,0.000000,4.427913,-0.673946,0.000000,-0.176000,0.174406,12600,2812,0,6810,401,-12,2,1525,0.029240,-0.196191,-0.350406,0.068634,0.013735,0.213756,-142,35,-986,69,14,214,728,0,0.204550,0.493325,0,0,51,0.338948,0.550089,696.792603,715.267883,-6.800292,4.004956,-0.140195,0.021187,-0.952853,0.000336,0.001031,-0.303431,-0.001602,-0.001353,-0.000265,0.000000,0.000000,0.000000,0.000000,2,3,217,4,4,3
5.770000,4,0,1,1,0,-159.000000,-155.000000,126.000000,46.000000,0.365079,462.000000,508.000000,138.000000,264.000000,15.000000,15.000000,12.095204,-11.408000,8.871641,12.584662,-22.087797,1.909667,-3.086337,-0.170337,0.017617,15.000000,8.584662,-22.087797,0.937948,-0.632847,0.000000,0.000000,4.436913,-0.651621,0.000000,-0.170500,0.168713,12600,2812,0,6811,402,-8,2,1589,0.030576,-0.196847,-0.339213,0.051473,-0.002444,0.221121,-143,35,-987,52,-1,222,728,0,0.201280,0.564400,0,0,51,0.264652,0.587868,697.093079,715.261108,-6.801555,4.028184,-0.083967,0.024740,-0.952853,0.000336,0.001031,-0.303431,-0.001602,-0.001353,-0.000265,0.000000,0.000000,0.000000,0.000000,2,3,217,4,4,3
5.826000,4,0,1,1,0,-159.500000,-143.500000,127.000000,57.000000,0.448819,468.000000,525.000000,137.000000,264.000000,15.000000,15.000000,12.094741,-10.561599,8.872273,12.621543,-21.293180,1.845488,-2.491332,-0.194206,0.238263,15.000000,8.621543,-21.293180,0.937896,-0.632899,0.000000,0.000000,4.456188,-0.624844,0.000000,-0.157850,0.164206,12600,2812,0,6813,405,-2,2,1688,0.027875,-0.196899,-0.322056,-0.018036,0.014085,0.222794,-144,36,-987,4,8,225,728,0,0.203207,0.565925,0,0,51,0.217006,0.572097,697.294495,715.258728,-6.802384,4.043010,-0.046034,0.026837,-0.952853,0.000336,0.001031,-0.303431,-0.001602,-0.001353,-0.000265,0.000000,0.000000,0.000000,0.000000,2,3,217,4,4,3
5.892000,4,0,1,0,0,-161.000000,-133.500000,124.000000,59.000000,0.475806,477.000000,536.000000,137.000000,261.000000,15.000000,15.000000,12.086554,-9.825601,8.883425,12.651039,-20.469261,1.776477,-1.882386,-0.219489,0.458084,15.000000,8.651039,-20.469261,0.936974,-0.633821,0.000000,0.000000,4.451740,-0.601671,0.000000,-0.146850,0.164241,12600,2812,0,6814,406,0,2,1750,0.026226,-0.197821,-0.311091,0.041728,-0.035069,0.210487,-145,36,-987,42,-34,211,728,0,0.203207,0.565925,0,0,51,0.217006,0.572097,697.608398,715.258911,-6.803946,4.065519,0.011268,0.029355,-0.952853,0.000336,0.001031,-0.303431,-0.001602,-0.001353,-0.000265,0.000000,0.000000,0.000000,0.000000,2,3,217,4,4,3
