g_app_elapsed_time,g_system_state,g_target_too_close,g_target_valid,g_target_detection_id,g_target_track_id,g_target_cntr_offset_x,g_target_cntr_offset_y,g_target_height,g_target_width,g_target_aspect,g_target_left,g_target_right,g_target_top,g_target_bottom,d_target_h,d_target_w,g_x_target,g_y_target,g_z_target,g_x_target_ekf,g_y_target_ekf,g_vx_target_ekf,g_vy_target_ekf,g_ax_target_ekf,g_ay_target_ekf,d_target,g_x_error,g_y_error,g_delta_angle,g_camera_tilt_angle,g_delta_d_x,g_delta_d_z,g_vx_adjust,g_vy_adjust,g_vz_adjust,g_yaw_target,g_yaw_target_error,g_mav_veh_sys_stat_voltage_battery,g_mav_veh_sys_stat_current_battery,g_mav_veh_sys_stat_battery_remaining,g_mav_veh_rel_alt,g_mav_veh_gps_vx,g_mav_veh_gps_vy,g_mav_veh_gps_vz,g_mav_veh_gps_hdg,g_mav_veh_roll,g_mav_veh_pitch,g_mav_veh_yaw,g_mav_veh_rollspeed,g_mav_veh_pitchspeed,g_mav_veh_yawspeed,g_mav_veh_imu_ax,g_mav_veh_imu_ay,g_mav_veh_imu_az,g_mav_veh_imu_xgyro,g_mav_veh_imu_ygyro,g_mav_veh_imu_zgyro,g_mav_veh_rngfdr_current_distance,g_mav_veh_rngfdr_signal_quality,g_mav_veh_flow_comp_m_x,g_mav_veh_flow_comp_m_y,g_mav_veh_flow_x,g_mav_veh_flow_y,g_mav_veh_flow_quality,g_mav_veh_flow_rate_x,g_mav_veh_flow_rate_y,g_mav_veh_local_ned_x,g_mav_veh_local_ned_y,g_mav_veh_local_ned_z,g_mav_veh_local_ned_vx,g_mav_veh_local_ned_vy,g_mav_veh_local_ned_vz,g_mav_veh_q1_actual,g_mav_veh_q2_actual,g_mav_veh_q3_actual,g_mav_veh_q4_actual,g_mav_veh_roll_rate_actual,g_mav_veh_pitch_rate_actual,g_mav_veh_yaw_rate_actual,g_mav_veh_repr_offset_q[0],g_mav_veh_repr_offset_q[1],g_mav_veh_repr_offset_q[2],g_mav_veh_repr_offset_q[3],g_mav_veh_type,g_mav_veh_autopilot_type,g_mav_veh_base_mode, g_mav_veh_custom_mode,g_mav_veh_state,g_mav_veh_mavlink_version
0.000000,0,0,0,-1,0,0.000000,0.000000,0.000000,0.000000,0.000000,0.000000,0.000000,0.000000,0.000000,0.000000,0.000000,0.000000,0.000000,0.000000,0.000000,0.000000,0.000000,0.000000,0.000000,0.000000,0.000000,0.000000,0.000000,0.000000,0.000000,0.000000,0.000000,0.000000,0.000000,0.000000,0.000000,0.000000,0,0,0,0,0,0,0,0,0.000000,0.000000,0.000000,0.000000,0.000000,0.000000,0,0,0,0,0,0,0,0,0.000000,0.000000,0,0,0,0.000000,0.000000,0.000000,0.000000,0.000000,0.000000,0.000000,0.000000,0.000000,0.000000,0.000000,0.000000,0.000000,0.000000,0.000000,0.000000,0.000000,0.000000,0.000000,0,0,0,0,0,0
0.000000,1,0,0,-1,0,0.000000,0.000000,0.000000,0.000000,0.000000,0.000000,0.000000,0.000000,0.000000,0.000000,0.000000,0.000000,0.000000,0.000000,0.000000,0.000000,0.000000,0.000000,0.000000,0.000000,0.000000,0.000000,0.000000,0.000000,0.000000,0.000000,0.000000,0.000000,0.000000,0.000000,0.000000,0.000000,0,0,0,6781,2,0,0,4852,-0.000973,0.000266,0.000000,0.000020,0.002900,-0.000649,0,0,-1000,0,3,0,703,0,-0.018570,-0.018576,0,0,51,-0.018360,-0.015281,728.621521,741.984985,-6.771461,0.022282,-0.006738,0.005923,0.000000,0.000000,0.000000,0.000000,0.000000,0.000000,0.000000,0.000000,0.000000,0.000000,0.000000,0,0,0,0,0,0
0.278000,1,0,0,-1,0,0.000000,0.000000,0.000000,0.000000,0.000000,0.000000,0.000000,0.000000,0.000000,0.000000,0.000000,0.000000,0.000000,0.000000,0.000000,0.000000,0.000000,0.000000,0.000000,0.000000,0.000000,0.000000,0.000000,0.000000,0.000000,0.000000,0.000000,0.000000,0.000000,0.000000,0.000000,0.000012,0,0,0,6781,2,0,0,4852,-0.000945,0.000550,-0.000012,-0.000105,0.002374,-0.000681,0,0,-1000,0,3,0,703,0,-0.018570,-0.018576,0,0,51,-0.018360,-0.015281,728.621399,741.984741,-6.771907,0.022029,-0.006786,0.006209,0.000000,0.000000,0.000000,0.000000,0.000000,0.000000,0.000000,0.000000,0.000000,0.000000,0.000000,0,0,0,0,0,0
0.385000,1,0,0,-1,0,0.000000,0.000000,0.000000,0.000000,0.000000,0.000000,0.000000,0.000000,0.000000,0.000000,0.000000,0.000000,0.000000,0.000000,0.000000,0.000000,0.000000,0.000000,0.000000,0.000000,0.000000,0.000000,0.000000,0.000000,0.000000,0.000000,0.000000,0.000000,0.000000,0.000000,0.000000,0.000021,0,0,0,6782,2,0,0,4852,-0.000920,0.000778,-0.000021,-0.000087,0.001832,-0.000599,0,0,-1000,0,2,0,703,0,0.020570,-0.030696,0,0,51,0.020743,-0.028002,728.621460,741.984436,-6.772235,0.021708,-0.006984,0.006532,0.000000,0.000000,0.000000,0.000000,0.000000,0.000000,0.000000,0.000000,0.000000,0.000000,0.000000,0,0,0,0,0,0
0.500000,1,0,0,-1,0,0.000000,0.000000,0.000000,0.000000,0.000000,0.000000,0.000000,0.000000,0.000000,0.000000,0.000000,0.000000,0.000000,0.000000,0.000000,0.000000,0.000000,0.000000,0.000000,0.000000,0.000000,0.000000,0.000000,0.000000,0.000000,0.000000,0.000000,0.000000,0.000000,0.000000,0.000000,0.000030,0,0,0,6782,2,0,0,4852,-0.000898,0.000967,-0.000030,-0.000137,0.001506,-0.000593,0,0,-1000,0,2,0,703,0,-0.039896,-0.027592,0,0,51,-0.039778,-0.025787,728.621399,741.984070,-6.772648,0.021023,-0.007408,0.006883,0.000000,0.000000,0.000000,0.000000,0.000000,0.000000,0.000000,0.000000,0.000000,0.000000,0.000000,0,0,0,0,0,0
0.581000,1,0,0,-1,0,0.000000,0.000000,0.000000,0.000000,0.000000,0.000000,0.000000,0.000000,0.000000,0.000000,0.000000,0.000000,0.000000,0.000000,0.000000,0.000000,0.000000,0.000000,0.000000,0.000000,0.000000,0.000000,0.000000,0.000000,0.000000,0.000000,0.000000,0.000000,0.000000,0.000000,0.000000,0.000035,0,0,0,6782,2,0,0,4852,-0.000879,0.001097,-0.000035,-0.000108,0.001187,-0.000530,0,0,-1000,0,1,0,703,0,-0.039896,-0.027592,0,0,51,-0.039778,-0.025787,728.621338,741.983887,-6.772794,0.020645,-0.007715,0.007136,0.000000,0.000000,0.000000,0.000000,0.000000,0.000000,0.000000,0.000000,0.000000,0.000000,0.000000,2,3,217,4,4,3
0.654000,1,0,0,-1,0,0.000000,0.000000,0.000000,0.000000,0.000000,0.000000,0.000000,0.000000,0.000000,0.000000,0.000000,0.000000,0.000000,0.000000,0.000000,0.000000,0.000000,0.000000,0.000000,0.000000,0.000000,0.000000,0.000000,0.000000,0.000000,0.000000,0.000000,0.000000,0.000000,0.000000,0.000000,0.000042,12600,2810,0,6783,1,0,0,4852,-0.000863,0.001040,-0.000042,-0.000166,-0.001676,-0.000624,0,0,-1000,0,0,0,703,0,-0.022256,0.046300,0,0,51,-0.022158,0.047778,728.620911,741.983704,-6.773057,0.019974,-0.008074,0.007261,-0.911673,0.000626,-0.000326,-0.410915,-0.000178,0.000199,-0.000649,0.000000,0.000000,0.000000,0.000000,2,3,217,4,4,3
0.719000,2,0,0,-1,0,0.000000,0.000000,0.000000,0.000000,0.000000,0.000000,0.000000,0.000000,0.000000,0.000000,0.000000,0.000000,0.000000,0.000000,0.000000,0.000000,0.000000,0.000000,0.000000,0.000000,0.000000,0.000000,0.000000,0.000000,0.000000,0.000000,0.000000,0.000000,0.000000,0.000000,0.000000,0.000052,12600,2810,0,6783,1,0,0,4852,-0.000857,0.000940,-0.000052,-0.000165,-0.001435,-0.000588,0,0,-1000,0,0,0,703,0,-0.047078,0.010482,0,0,51,-0.046997,0.009223,728.621033,741.983398,-6.773175,0.019652,-0.008414,0.007524,-0.911673,0.000626,-0.000326,-0.410915,-0.000178,0.000199,-0.000649,0.000000,0.000000,0.000000,0.000000,2,3,217,4,4,3
0.788000,4,0,0,-1,0,0.000000,0.000000,0.000000,0.000000,0.000000,0.000000,0.000000,0.000000,0.000000,0.000000,0.000000,0.000000,0.000000,0.000000,0.000000,0.000000,0.000000,0.000000,0.000000,0.000000,0.000000,0.000000,0.000000,0.000000,0.000000,0.000000,0.000000,0.000000,0.000000,0.000000,0.000000,0.000058,12600,2810,0,6783,1,0,0,4852,-0.000842,0.000860,-0.000058,-0.000181,-0.001286,-0.000516,0,0,-1000,0,0,0,703,0,-0.002567,-0.026620,0,0,51,-0.002500,-0.027647,728.620789,741.983154,-6.773270,0.019177,-0.008618,0.007745,-0.911673,0.000626,-0.000326,-0.410915,-0.000178,0.000199,-0.000649,0.000000,0.000000,0.000000,0.000000,2,3,217,4,4,3
0.855000,4,0,0,-1,0,0.000000,0.000000,0.000000,0.000000,0.000000,0.000000,0.000000,0.000000,0.000000,0.000000,0.000000,0.000000,0.000000,0.000000,0.000000,0.000000,0.000000,0.000000,0.000000,0.000000,0.000000,0.000000,0.000000,0.000000,0.000000,0.000000,0.000000,0.000000,0.000000,0.000000,0.000000,0.000061,12600,2810,0,6783,1,0,0,4852,-0.000831,0.000811,-0.000061,-0.000121,-0.001181,-0.000595,0,0,-1000,0,0,0,703,0,-0.002567,-0.026620,0,0,51,-0.002500,-0.027647,728.620483,741.982971,-6.773408,0.018823,-0.008706,0.007865,-0.911673,0.000626,-0.000326,-0.410915,-0.000178,0.000199,-0.000649,0.000000,0.000000,0.000000,0.000000,2,3,217,4,4,3
0.921000,4,0,0,-1,0,0.000000,0.000000,0.000000,0.000000,0.000000,0.000000,0.000000,0.000000,0.000000,0.000000,0.000000,0.000000,0.000000,0.000000,0.000000,0.000000,0.000000,0.000000,0.000000,0.000000,0.000000,0.000000,0.000000,0.000000,0.000000,0.000000,0.000000,0.000000,0.000000,0.000000,0.000000,0.000074,12600,2810,0,6783,1,0,0,4852,-0.000829,0.000738,-0.000074,-0.000198,-0.001067,-0.000591,0,0,-1000,0,0,0,703,0,0.014461,-0.040581,0,0,51,0.014517,-0.041419,728.620667,741.982544,-6.773432,0.018612,-0.008942,0.008130,-0.911673,0.000626,-0.000326,-0.410915,-0.000178,0.000199,-0.000649,0.000000,0.000000,0.000000,0.000000,2,3,217,4,4,3
0.987000,4,0,0,-1,0,0.000000,0.000000,0.000000,0.000000,0.000000,0.000000,0.000000,0.000000,0.000000,0.000000,0.000000,0.000000,0.000000,0.000000,0.000000,0.000000,0.000000,0.000000,0.000000,0.000000,0.000000,0.000000,0.000000,0.000000,0.000000,0.000000,0.000000,0.000000,0.000000,0.000000,0.000000,0.000080,12600,2810,0,6783,1,0,0,4852,-0.000815,0.000673,-0.000080,-0.000234,-0.001351,-0.000636,0,0,-1000,0,0,0,703,0,-0.034018,0.023845,0,0,51,-0.033971,0.023157,728.620300,741.982300,-6.773478,0.018263,-0.009026,0.008318,-0.911673,0.000626,-0.000326,-0.410915,-0.000178,0.000199,-0.000649,0.000000,0.000000,0.000000,0.000000,2,3,217,4,4,3
1.053000,4,0,0,-1,0,0.000000,0.000000,0.000000,0.000000,0.000000,0.000000,0.000000,0.000000,0.000000,0.000000,0.000000,0.000000,0.000000,0.000000,0.000000,0.000000,0.000000,0.000000,0.000000,0.000000,0.000000,0.000000,0.000000,0.000000,0.000000,0.000000,0.000000,0.000000,0.000000,0.000000,0.000000,0.000088,12600,2810,0,6783,1,0,0,4852,-0.000808,0.000558,-0.000088,-0.000205,-0.001694,-0.000660,0,0,-1000,0,0,0,703,0,-0.034018,0.023845,0,0,51,-0.033971,0.023157,728.620056,741.982117,-6.773576,0.018015,-0.009027,0.008314,-0.911673,0.000626,-0.000326,-0.410915,-0.000178,0.000199,-0.000649,0.000000,0.000000,0.000000,0.000000,2,3,217,4,4,3
1.112000,4,0,0,-1,0,0.000000,0.000000,0.000000,0.000000,0.000000,0.000000,0.000000,0.000000,0.000000,0.000000,0.000000,0.000000,0.000000,0.000000,0.000000,0.000000,0.000000,0.000000,0.000000,0.000000,0.000000,0.000000,0.000000,0.000000,0.000000,0.000000,0.000000,0.000000,0.000000,0.000000,0.000000,0.000100,12600,2810,0,6783,1,0,0,4852,-0.000806,0.000488,-0.000100,-0.000218,-0.001567,-0.000673,0,0,-1000,0,0,0,703,0,-0.035474,0.040156,0,0,51,-0.035435,0.038847,728.620056,741.981750,-6.773558,0.017959,-0.009047,0.008537,-0.911673,0.000626,-0.000326,-0.410915,-0.000178,0.000199,-0.000649,0.000000,0.000000,0.000000,0.000000,2,3,217,4,4,3
1.181000,4,0,0,-1,0,0.000000,0.000000,0.000000,0.000000,0.000000,0.000000,0.000000,0.000000,0.000000,0.000000,0.000000,0.000000,0.000000,0.000000,0.000000,0.000000,0.000000,0.000000,0.000000,0.000000,0.000000,0.000000,0.000000,0.000000,0.000000,0.000000,0.000000,0.000000,0.000000,0.000000,0.000000,0.000109,12600,2810,0,6783,1,0,0,4852,-0.000728,0.000399,-0.000109,0.001732,-0.001403,-0.000558,0,0,-1000,2,0,0,703,0,0.010658,0.037207,0,0,51,0.012490,0.036134,728.619812,741.981384,-6.773614,0.017767,-0.008952,0.008681,-0.911673,0.000626,-0.000326,-0.410915,-0.000178,0.000199,-0.000649,0.000000,0.000000,0.000000,0.000000,2,3,217,4,4,3
1.264000,4,0,0,-1,0,0.000000,0.000000,0.000000,0.000000,0.000000,0.000000,0.000000,0.000000,0.000000,0.000000,0.000000,0.000000,0.000000,0.000000,0.000000,0.000000,0.000000,0.000000,0.000000,0.000000,0.000000,0.000000,0.000000,0.000000,0.000000,0.000000,0.000000,0.000000,0.000000,0.000000,0.000000,0.000117,12600,2810,0,6783,1,0,0,4852,-0.000593,0.000321,-0.000117,0.001400,-0.001276,-0.000581,0,0,-1000,2,0,0,703,0,0.010658,0.037207,0,0,51,0.012490,0.036134,728.619507,741.981140,-6.773666,0.017587,-0.008740,0.008851,-0.911673,0.000626,-0.000326,-0.410915,-0.000178,0.000199,-0.000649,0.000000,0.000000,0.000000,0.000000,2,3,217,4,4,3
1.327000,4,0,0,-1,0,0.000000,0.000000,0.000000,0.000000,0.000000,0.000000,0.000000,0.000000,0.000000,0.000000,0.000000,0.000000,0.000000,0.000000,0.000000,0.000000,0.000000,0.000000,0.000000,0.000000,0.000000,0.000000,0.000000,0.000000,0.000000,0.000000,0.000000,0.000000,0.000000,0.000000,0.000000,0.000130,12600,2810,0,6783,1,0,0,4851,-0.000465,0.000272,-0.000130,0.001966,-0.000233,-0.000612,0,0,-1001,2,0,0,703,0,-0.031401,-0.028125,0,0,51,-0.029905,-0.029004,728.619629,741.980835,-6.773588,0.017650,-0.008546,0.008996,-0.911673,0.000626,-0.000326,-0.410915,-0.000178,0.000199,-0.000649,0.000000,0.000000,0.000000,0.000000,2,3,217,4,4,3
1.389000,4,0,0,-1,0,0.000000,0.000000,0.000000,0.000000,0.000000,0.000000,0.000000,0.000000,0.000000,0.000000,0.000000,0.000000,0.000000,0.000000,0.000000,0.000000,0.000000,0.000000,0.000000,0.000000,0.000000,0.000000,0.000000,0.000000,0.000000,0.000000,0.000000,0.000000,0.000000,0.000000,0.000000,0.000134,12600,2810,0,6783,1,0,0,4851,-0.000357,0.000226,-0.000134,0.000454,-0.002205,-0.000460,0,0,-1001,0,0,0,703,0,0.028790,0.026439,0,0,51,0.028001,0.024616,728.619263,741.980652,-6.773614,0.017332,-0.008222,0.008478,-0.911673,0.000626,-0.000326,-0.410915,-0.000178,0.000199,-0.000649,0.000000,0.000000,0.000000,0.000000,2,3,217,4,4,3
1.455000,4,0,0,-1,0,0.000000,0.000000,0.000000,0.000000,0.000000,0.000000,0.000000,0.000000,0.000000,0.000000,0.000000,0.000000,0.000000,0.000000,0.000000,0.000000,0.000000,0.000000,0.000000,0.000000,0.000000,0.000000,0.000000,0.000000,0.000000,0.000000,0.000000,0.000000,0.000000,0.000000,0.000000,0.000134,12600,2810,0,6783,1,0,0,4851,-0.000389,0.000141,-0.000134,-0.001018,-0.001856,-0.000487,0,0,-1000,0,-1,0,703,0,0.028790,0.026439,0,0,51,0.028001,0.024616,728.618958,741.980469,-6.773668,0.017076,-0.007818,0.008595,-0.911673,0.000626,-0.000326,-0.410915,-0.000178,0.000199,-0.000649,0.000000,0.000000,0.000000,0.000000,2,3,217,4,4,3
1.521000,4,0,0,-1,0,0.000000,0.000000,0.000000,0.000000,0.000000,0.000000,0.000000,0.000000,0.000000,0.000000,0.000000,0.000000,0.000000,0.000000,0.000000,0.000000,0.000000,0.000000,0.000000,0.000000,0.000000,0.000000,0.000000,0.000000,0.000000,0.000000,0.000000,0.000000,0.000000,0.000000,0.000000,0.000138,12600,2810,0,6783,1,0,0,4851,-0.000441,0.000055,-0.000138,-0.000913,-0.000680,-0.000450,0,0,-1000,0,0,0,703,0,-0.046589,-0.042068,0,0,51,-0.047292,-0.043556,728.619019,741.980286,-6.773597,0.017110,-0.007559,0.008736,-0.911673,0.000626,-0.000326,-0.410915,-0.000178,0.000199,-0.000649,0.000000,0.000000,0.000000,0.000000,2,3,217,4,4,3
1.591000,4,0,0,-1,0,0.000000,0.000000,0.000000,0.000000,0.000000,0.000000,0.000000,0.000000,0.000000,0.000000,0.000000,0.000000,0.000000,0.000000,0.000000,0.000000,0.000000,0.000000,0.000000,0.000000,0.000000,0.000000,0.000000,0.000000,0.000000,0.000000,0.000000,0.000000,0.000000,0.000000,0.000000,0.000142,12600,2810,0,6783,1,0,0,4851,-0.000452,0.000085,-0.000142,-0.000473,0.001710,-0.000565,0,0,-1001,0,0,0,703,0,-0.003056,0.041547,0,0,51,-0.005610,0.039186,728.618774,741.980103,-6.773602,0.017002,-0.007093,0.008636,-0.911673,0.000626,-0.000326,-0.410915,-0.000178,0.000199,-0.000649,0.000000,0.000000,0.000000,0.000000,2,3,217,4,4,3
1.659000,4,0,0,-1,0,0.000000,0.000000,0.000000,0.000000,0.000000,0.000000,0.000000,0.000000,0.000000,0.000000,0.000000,0.000000,0.000000,0.000000,0.000000,0.000000,0.000000,0.000000,0.000000,0.000000,0.000000,0.000000,0.000000,0.000000,0.000000,0.000000,0.000000,0.000000,0.000000,0.000000,0.000000,0.000152,12600,2810,0,6783,1,0,0,4851,-0.000529,0.000111,-0.000152,-0.002211,0.002058,-0.000628,0,0,-1001,-1,2,0,703,0,-0.003056,0.041547,0,0,51,-0.005610,0.039186,728.618469,741.979980,-6.773650,0.016881,-0.006661,0.008244,-0.911673,0.000626,-0.000326,-0.410915,-0.000178,0.000199,-0.000649,0.000000,0.000000,0.000000,0.000000,2,3,217,4,4,3
1.726000,4,0,0,-1,0,0.000000,0.000000,0.000000,0.000000,0.000000,0.000000,0.000000,0.000000,0.000000,0.000000,0.000000,0.000000,0.000000,0.000000,0.000000,0.000000,0.000000,0.000000,0.000000,0.000000,0.000000,0.000000,0.000000,0.000000,0.000000,0.000000,0.000000,0.000000,0.000000,0.000000,0.000000,0.000166,12600,2810,0,6783,1,0,0,4851,-0.000561,0.000263,-0.000166,-0.000626,0.001801,-0.000511,0,0,-1000,0,2,0,703,0,0.023288,0.043937,0,0,51,0.022888,0.046162,728.618530,741.979858,-6.773591,0.016959,-0.006446,0.008415,-0.911673,0.000626,-0.000326,-0.410915,-0.000178,0.000199,-0.000649,0.000000,0.000000,0.000000,0.000000,2,3,217,4,4,3
1.792000,4,0,0,-1,0,0.000000,0.000000,0.000000,0.000000,0.000000,0.000000,0.000000,0.000000,0.000000,0.000000,0.000000,0.000000,0.000000,0.000000,0.000000,0.000000,0.000000,0.000000,0.000000,0.000000,0.000000,0.000000,0.000000,0.000000,0.000000,0.000000,0.000000,0.000000,0.000000,0.000000,0.000000,0.000175,12600,2810,0,6783,1,0,0,4851,-0.000596,0.000335,-0.000175,-0.001158,0.000557,-0.000664,0,0,-1001,0,1,0,703,0,0.041887,0.023326,0,0,51,0.041559,0.022305,728.618042,741.979614,-6.773700,0.016622,-0.006246,0.008453,-0.911673,0.000626,-0.000326,-0.410915,-0.000178,0.000199,-0.000649,0.000000,0.000000,0.000000,0.000000,2,3,217,4,4,3
1.859000,4,0,0,-1,0,0.000000,0.000000,0.000000,0.000000,0.000000,0.000000,0.000000,0.000000,0.000000,0.000000,0.000000,0.000000,0.000000,0.000000,0.000000,0.000000,0.000000,0.000000,0.000000,0.000000,0.000000,0.000000,0.000000,0.000000,0.000000,0.000000,0.000000,0.000000,0.000000,0.000000,0.000000,0.000184,12600,2810,0,6783,1,0,0,4851,-0.000680,0.000267,-0.000184,-0.001932,-0.000264,-0.000572,0,0,-1001,-1,0,0,703,0,0.041887,0.023326,0,0,51,0.041559,0.022305,728.617920,741.979309,-6.773677,0.016601,-0.006134,0.008016,-0.911673,0.000626,-0.000326,-0.410915,-0.000178,0.000199,-0.000649,0.000000,0.000000,0.000000,0.000000,2,3,217,4,4,3
1.918000,4,0,0,-1,0,0.000000,0.000000,0.000000,0.000000,0.000000,0.000000,0.000000,0.000000,0.000000,0.000000,0.000000,0.000000,0.000000,0.000000,0.000000,0.000000,0.000000,0.000000,0.000000,0.000000,0.000000,0.000000,0.000000,0.000000,0.000000,0.000000,0.000000,0.000000,0.000000,0.000000,0.000000,0.000183,12600,2810,0,6783,1,0,0,4851,-0.000576,0.000263,-0.000183,0.001478,-0.000213,-0.000354,0,0,-1000,2,0,0,703,0,-0.010337,0.021237,0,0,51,-0.008514,0.021288,728.617981,741.979126,-6.773631,0.016719,-0.006046,0.008073,-0.911673,0.000626,-0.000326,-0.410915,-0.000178,0.000199,-0.000649,0.000000,0.000000,0.000000,0.000000,2,3,217,4,4,3
1.986000,4,0,0,-1,0,0.000000,0.000000,0.000000,0.000000,0.000000,0.000000,0.000000,0.000000,0.000000,0.000000,0.000000,0.000000,0.000000,0.000000,0.000000,0.000000,0.000000,0.000000,0.000000,0.000000,0.000000,0.000000,0.000000,0.000000,0.000000,0.000000,0.000000,0.000000,0.000000,0.000000,0.000000,0.000178,12600,2810,0,6783,1,0,0,4851,-0.000487,0.000247,-0.000178,-0.000143,-0.001025,-0.000387,0,0,-1000,1,0,0,703,0,0.039010,-0.013764,0,0,51,0.040493,-0.013723,728.617493,741.978760,-6.773763,0.016441,-0.005873,0.008226,-0.911673,0.000626,-0.000326,-0.410915,-0.000178,0.000199,-0.000649,0.000000,0.000000,0.000000,0.000000,2,3,217,4,4,3
2.054000,4,0,0,-1,0,0.000000,0.000000,0.000000,0.000000,0.000000,0.000000,0.000000,0.000000,0.000000,0.000000,0.000000,0.000000,0.000000,0.000000,0.000000,0.000000,0.000000,0.000000,0.000000,0.000000,0.000000,0.000000,0.000000,0.000000,0.000000,0.000000,0.000000,0.000000,0.000000,0.000000,0.000000,0.000175,12600,2810,0,6783,1,0,0,4851,-0.000551,0.000157,-0.000175,-0.001559,-0.002048,-0.000370,0,0,-1000,0,-1,0,703,0,0.039010,-0.013764,0,0,51,0.040493,-0.013723,728.617432,741.978394,-6.773738,0.016381,-0.005696,0.008287,-0.911673,0.000626,-0.000326,-0.410915,-0.000178,0.000199,-0.000649,0.000000,0.000000,0.000000,0.000000,2,3,217,4,4,3
2.123000,4,0,0,-1,0,0.000000,0.000000,0.000000,0.000000,0.000000,0.000000,0.000000,0.000000,0.000000,0.000000,0.000000,0.000000,0.000000,0.000000,0.000000,0.000000,0.000000,0.000000,0.000000,0.000000,0.000000,0.000000,0.000000,0.000000,0.000000,0.000000,0.000000,0.000000,0.000000,0.000000,0.000000,0.000174,12600,2810,0,6783,1,0,0,4851,-0.000643,0.000034,-0.000174,-0.001420,-0.001752,-0.000347,0,0,-1000,0,-1,0,703,0,-0.039343,0.021166,0,0,51,-0.040575,0.019565,728.617432,741.978210,-6.773671,0.016494,-0.005560,0.008436,-0.911673,0.000626,-0.000326,-0.410915,-0.000178,0.000199,-0.000649,0.000000,0.000000,0.000000,0.000000,2,3,217,4,4,3
2.195000,4,0,0,-1,0,0.000000,0.000000,0.000000,0.000000,0.000000,0.000000,0.000000,0.000000,0.000000,0.000000,0.000000,0.000000,0.000000,0.000000,0.000000,0.000000,0.000000,0.000000,0.000000,0.000000,0.000000,0.000000,0.000000,0.000000,0.000000,0.000000,0.000000,0.000000,0.000000,0.000000,0.000000,0.000168,12600,2810,0,6783,1,0,0,4851,-0.000662,-0.000006,-0.000168,0.000662,-0.000694,-0.000298,0,0,-1001,1,0,0,703,0,-0.017755,0.010310,0,0,51,-0.019751,0.009894,728.616943,741.977844,-6.773797,0.016402,-0.005298,0.008434,-0.911673,0.000626,-0.000326,-0.410915,-0.000178,0.000199,-0.000649,0.000000,0.000000,0.000000,0.000000,2,3,217,4,4,3
2.263000,4,0,0,-1,0,0.000000,0.000000,0.000000,0.000000,0.000000,0.000000,0.000000,0.000000,0.000000,0.000000,0.000000,0.000000,0.000000,0.000000,0.000000,0.000000,0.000000,0.000000,0.000000,0.000000,0.000000,0.000000,0.000000,0.000000,0.000000,0.000000,0.000000,0.000000,0.000000,0.000000,0.000000,0.000142,12600,2810,0,6783,1,0,0,4851,-0.000738,-0.000038,-0.000142,-0.002026,-0.000651,0.000010,0,0,-1000,-1,0,0,703,0,-0.017755,0.010310,0,0,51,-0.019751,0.009894,728.616943,741.977539,-6.773740,0.016652,-0.005113,0.008258,-0.911673,0.000626,-0.000326,-0.410915,-0.000178,0.000199,-0.000649,0.000000,0.000000,0.000000,0.000000,2,3,217,4,4,3
2.331000,4,0,0,-1,0,0.000000,0.000000,0.000000,0.000000,0.000000,0.000000,0.000000,0.000000,0.000000,0.000000,0.000000,0.000000,0.000000,0.000000,0.000000,0.000000,0.000000,0.000000,0.000000,0.000000,0.000000,0.000000,0.000000,0.000000,0.000000,0.000000,0.000000,0.000000,0.000000,0.000000,0.000000,0.000125,12600,2810,0,6783,1,0,0,4851,-0.000735,-0.000062,-0.000125,-0.000135,-0.000646,-0.000042,0,0,-1000,0,0,0,703,0,-0.000035,0.036505,0,0,51,0.000034,0.036162,728.617126,741.977173,-6.773682,0.017090,-0.004870,0.008405,-0.911673,0.000626,-0.000326,-0.410915,-0.000178,0.000199,-0.000649,0.000000,0.000000,0.000000,0.000000,2,3,217,4,4,3
2.397000,4,0,0,-1,0,0.000000,0.000000,0.000000,0.000000,0.000000,0.000000,0.000000,0.000000,0.000000,0.000000,0.000000,0.000000,0.000000,0.000000,0.000000,0.000000,0.000000,0.000000,0.000000,0.000000,0.000000,0.000000,0.000000,0.000000,0.000000,0.000000,0.000000,0.000000,0.000000,0.000000,0.000000,0.000102,12600,2810,0,6783,1,0,0,4852,-0.000723,-0.000079,-0.000102,-0.000186,-0.001093,-0.000283,0,0,-1001,0,0,0,703,0,0.004997,-0.030099,0,0,51,0.005051,-0.028456,728.616760,741.976990,-6.773724,0.017007,-0.004731,0.008438,-0.911673,0.000626,-0.000326,-0.410915,-0.000178,0.000199,-0.000649,0.000000,0.000000,0.000000,0.000000,2,3,217,4,4,3
2.464000,4,0,0,-1,0,0.000000,0.000000,0.000000,0.000000,0.000000,0.000000,0.000000,0.000000,0.000000,0.000000,0.000000,0.000000,0.000000,0.000000,0.000000,0.000000,0.000000,0.000000,0.000000,0.000000,0.000000,0.000000,0.000000,0.000000,0.000000,0.000000,0.000000,0.000000,0.000000,0.000000,0.000000,0.000116,12600,2810,0,6783,1,0,0,4852,-0.000716,-0.000054,-0.000116,-0.000190,0.000549,-0.000771,0,0,-1001,0,1,0,703,0,0.004997,-0.030099,0,0,51,0.005051,-0.028456,728.616577,741.976685,-6.773748,0.017164,-0.004515,0.008053,-0.911673,0.000626,-0.000326,-0.410915,-0.000178,0.000199,-0.000649,0.000000,0.000000,0.000000,0.000000,2,3,217,4,4,3
2.530000,4,0,0,-1,0,0.000000,0.000000,0.000000,0.000000,0.000000,0.000000,0.000000,0.000000,0.000000,0.000000,0.000000,0.000000,0.000000,0.000000,0.000000,0.000000,0.000000,0.000000,0.000000,0.000000,0.000000,0.000000,0.000000,0.000000,0.000000,0.000000,0.000000,0.000000,0.000000,0.000000,0.000000,0.000141,12600,2810,0,6783,1,0,0,4851,-0.000716,-0.000039,-0.000141,-0.000233,0.001393,-0.000899,0,0,-1000,0,2,0,703,0,-0.048983,-0.019765,0,0,51,-0.048939,-0.022056,728.616821,741.976379,-6.773707,0.017569,-0.004303,0.008019,-0.911673,0.000626,-0.000326,-0.410915,-0.000178,0.000199,-0.000649,0.000000,0.000000,0.000000,0.000000,2,3,217,4,4,3
2.597000,4,0,0,-1,0,0.000000,0.000000,0.000000,0.000000,0.000000,0.000000,0.000000,0.000000,0.000000,0.000000,0.000000,0.000000,0.000000,0.000000,0.000000,0.000000,0.000000,0.000000,0.000000,0.000000,0.000000,0.000000,0.000000,0.000000,0.000000,0.000000,0.000000,0.000000,0.000000,0.000000,0.000000,0.000173,12600,2810,0,6783,1,0,0,4851,-0.000705,0.000068,-0.000173,-0.000224,0.001040,-0.000867,0,0,-1000,0,1,0,703,0,0.045774,-0.048839,0,0,51,0.045810,-0.047440,728.616333,741.976196,-6.773844,0.017379,-0.004198,0.008087,-0.911673,0.000626,-0.000326,-0.410915,-0.000178,0.000199,-0.000649,0.000000,0.000000,0.000000,0.000000,2,3,217,4,4,3
2.664000,4,0,0,-1,0,0.000000,0.000000,0.000000,0.000000,0.000000,0.000000,0.000000,0.000000,0.000000,0.000000,0.000000,0.000000,0.000000,0.000000,0.000000,0.000000,0.000000,0.000000,0.000000,0.000000,0.000000,0.000000,0.000000,0.000000,0.000000,0.000000,0.000000,0.000000,0.000000,0.000000,0.000000,0.000202,12600,2810,0,6783,1,0,0,4851,-0.000698,0.000156,-0.000202,-0.000171,0.000881,-0.000802,0,0,-1000,0,1,0,703,0,0.045774,-0.048839,0,0,51,0.045810,-0.047440,728.616394,741.975952,-6.773793,0.017544,-0.004088,0.008217,-0.911673,0.000626,-0.000326,-0.410915,-0.000178,0.000199,-0.000649,0.000000,0.000000,0.000000,0.000000,2,3,217,4,4,3
2.722000,4,0,0,-1,0,0.000000,0.000000,0.000000,0.000000,0.000000,0.000000,0.000000,0.000000,0.000000,0.000000,0.000000,0.000000,0.000000,0.000000,0.000000,0.000000,0.000000,0.000000,0.000000,0.000000,0.000000,0.000000,0.000000,0.000000,0.000000,0.000000,0.000000,0.000000,0.000000,0.000000,0.000000,0.000222,12600,2810,0,6783,1,0,0,4851,-0.000698,0.000202,-0.000222,-0.000169,0.000702,-0.000719,0,0,-1000,0,1,0,703,0,-0.020367,-0.009703,0,0,51,-0.020336,-0.008561,728.616516,741.975830,-6.773721,0.017702,-0.003995,0.008351,-0.911673,0.000626,-0.000326,-0.410915,-0.000178,0.000199,-0.000649,0.000000,0.000000,0.000000,0.000000,2,3,217,4,4,3
2.789000,4,0,0,-1,0,0.000000,0.000000,0.000000,0.000000,0.000000,0.000000,0.000000,0.000000,0.000000,0.000000,0.000000,0.000000,0.000000,0.000000,0.000000,0.000000,0.000000,0.000000,0.000000,0.000000,0.000000,0.000000,0.000000,0.000000,0.000000,0.000000,0.000000,0.000000,0.000000,0.000000,0.000000,0.000244,12600,2810,0,6783,1,0,0,4851,-0.000697,0.000241,-0.000244,0.000323,-0.000376,-0.000618,0,0,-1001,0,0,0,703,0,-0.041603,-0.045286,0,0,51,-0.043492,-0.045303,728.616150,741.975525,-6.773841,0.017517,-0.003951,0.008404,-0.911673,0.000626,-0.000326,-0.410915,-0.000178,0.000199,-0.000649,0.000000,0.000000,0.000000,0.000000,2,3,217,4,4,3
2.857000,4,0,0,-1,0,0.000000,0.000000,0.000000,0.000000,0.000000,0.000000,0.000000,0.000000,0.000000,0.000000,0.000000,0.000000,0.000000,0.000000,0.000000,0.000000,0.000000,0.000000,0.000000,0.000000,0.000000,0.000000,0.000000,0.000000,0.000000,0.000000,0.000000,0.000000,0.000000,0.000000,0.000000,0.000244,12600,2810,0,6783,1,0,0,4851,-0.000731,0.000214,-0.000244,0.000484,-0.001274,-0.000303,0,0,-1001,1,0,0,703,0,-0.041603,-0.045286,0,0,51,-0.043492,-0.045303,728.616211,741.975342,-6.773782,0.017658,-0.003922,0.008077,-0.911673,0.000626,-0.000326,-0.410915,-0.000178,0.000199,-0.000649,0.000000,0.000000,0.000000,0.000000,2,3,217,4,4,3
2.924000,4,0,0,-1,0,0.000000,0.000000,0.000000,0.000000,0.000000,0.000000,0.000000,0.000000,0.000000,0.000000,0.000000,0.000000,0.000000,0.000000,0.000000,0.000000,0.000000,0.000000,0.000000,0.000000,0.000000,0.000000,0.000000,0.000000,0.000000,0.000000,0.000000,0.000000,0.000000,0.000000,0.000000,0.000232,12600,2810,0,6783,1,0,0,4851,-0.000716,0.000139,-0.000232,0.000849,-0.001144,-0.000180,0,0,-1000,1,0,0,703,0,-0.039201,0.000988,0,0,51,-0.038024,0.000102,728.616333,741.975159,-6.773716,0.017811,-0.003917,0.008125,-0.911673,0.000626,-0.000326,-0.410915,-0.000178,0.000199,-0.000649,0.000000,0.000000,0.000000,0.000000,2,3,217,4,4,3
2.994000,4,0,0,-1,0,0.000000,0.000000,0.000000,0.000000,0.000000,0.000000,0.000000,0.000000,0.000000,0.000000,0.000000,0.000000,0.000000,0.000000,0.000000,0.000000,0.000000,0.000000,0.000000,0.000000,0.000000,0.000000,0.000000,0.000000,0.000000,0.000000,0.000000,0.000000,0.000000,0.000000,0.000000,0.000220,12600,2810,0,6783,1,0,0,4851,-0.000635,0.000081,-0.000220,0.000732,-0.000977,-0.000221,0,0,-1000,1,0,0,703,0,-0.045663,0.023346,0,0,51,-0.044707,0.022624,728.616150,741.974915,-6.773832,0.017735,-0.003821,0.008252,-0.911673,0.000626,-0.000326,-0.410915,-0.000178,0.000199,-0.000649,0.000000,0.000000,0.000000,0.000000,2,3,217,4,4,3
3.061000,4,0,0,-1,0,0.000000,0.000000,0.000000,0.000000,0.000000,0.000000,0.000000,0.000000,0.000000,0.000000,0.000000,0.000000,0.000000,0.000000,0.000000,0.000000,0.000000,0.000000,0.000000,0.000000,0.000000,0.000000,0.000000,0.000000,0.000000,0.000000,0.000000,0.000000,0.000000,0.000000,0.000000,0.000209,12600,2810,0,6783,1,0,0,4851,-0.000567,0.000032,-0.000209,0.000624,-0.000931,-0.000262,0,0,-1000,1,0,0,702,0,-0.045663,0.023346,0,0,51,-0.044707,0.022624,728.615967,741.974731,-6.773936,0.017724,-0.003658,0.008333,-0.911673,0.000626,-0.000326,-0.410915,-0.000178,0.000199,-0.000649,0.000000,0.000000,0.000000,0.000000,2,3,217,4,4,3
3.130000,4,0,0,-1,0,0.000000,0.000000,0.000000,0.000000,0.000000,0.000000,0.000000,0.000000,0.000000,0.000000,0.000000,0.000000,0.000000,0.000000,0.000000,0.000000,0.000000,0.000000,0.000000,0.000000,0.000000,0.000000,0.000000,0.000000,0.000000,0.000000,0.000000,0.000000,0.000000,0.000000,0.000000,0.000206,12600,2810,0,6783,1,0,0,4851,-0.000581,-0.000003,-0.000206,-0.001791,-0.000883,-0.000274,0,0,-1001,-1,0,0,702,0,0.027170,0.018767,0,0,51,0.027951,0.018176,728.616272,741.974548,-6.773901,0.018017,-0.003407,0.008411,-0.911673,0.000626,-0.000326,-0.410915,-0.000178,0.000199,-0.000649,0.000000,0.000000,0.000000,0.000000,2,3,217,4,4,3
3.199000,4,0,0,-1,0,0.000000,0.000000,0.000000,0.000000,0.000000,0.000000,0.000000,0.000000,0.000000,0.000000,0.000000,0.000000,0.000000,0.000000,0.000000,0.000000,0.000000,0.000000,0.000000,0.000000,0.000000,0.000000,0.000000,0.000000,0.000000,0.000000,0.000000,0.000000,0.000000,0.000000,0.000000,0.000183,12600,2810,0,6783,1,0,0,4851,-0.000599,-0.000043,-0.000183,-0.000135,-0.000823,-0.000016,0,0,-1001,0,0,0,702,0,0.045127,0.030945,0,0,51,0.045991,0.030460,728.616089,741.974243,-6.773751,0.018024,-0.003299,0.008302,-0.911673,0.000626,-0.000326,-0.410915,-0.000178,0.000199,-0.000649,0.000000,0.000000,0.000000,0.000000,2,3,217,4,4,3
3.269000,4,0,0,-1,0,0.000000,0.000000,0.000000,0.000000,0.000000,0.000000,0.000000,0.000000,0.000000,0.000000,0.000000,0.000000,0.000000,0.000000,0.000000,0.000000,0.000000,0.000000,0.000000,0.000000,0.000000,0.000000,0.000000,0.000000,0.000000,0.000000,0.000000,0.000000,0.000000,0.000000,0.000000,0.000158,12600,2810,0,6783,1,0,0,4851,-0.000669,-0.000080,-0.000158,-0.001174,-0.000808,-0.000078,0,0,-1000,0,0,0,702,0,0.045127,0.030945,0,0,51,0.045991,0.030460,728.615845,741.973877,-6.773587,0.018010,-0.003186,0.008446,-0.911673,0.000626,-0.000326,-0.410915,-0.000178,0.000199,-0.000649,0.000000,0.000000,0.000000,0.000000,2,3,217,4,4,3
3.341000,4,0,0,-1,0,0.000000,0.000000,0.000000,0.000000,0.000000,0.000000,0.000000,0.000000,0.000000,0.000000,0.000000,0.000000,0.000000,0.000000,0.000000,0.000000,0.000000,0.000000,0.000000,0.000000,0.000000,0.000000,0.000000,0.000000,0.000000,0.000000,0.000000,0.000000,0.000000,0.000000,0.000000,0.000139,12600,2810,0,6783,1,0,0,4851,-0.000571,-0.000129,-0.000139,0.002085,0.000228,-0.000165,0,0,-1002,2,-1,0,702,0,-0.019581,0.030589,0,0,51,-0.020509,0.030191,728.616150,741.973572,-6.773255,0.018417,-0.003011,0.008239,-0.911673,0.000626,-0.000326,-0.410915,-0.000178,0.000199,-0.000649,0.000000,0.000000,0.000000,0.000000,2,3,217,4,4,3
3.410000,4,0,0,-1,0,0.000000,0.000000,0.000000,0.000000,0.000000,0.000000,0.000000,0.000000,0.000000,0.000000,0.000000,0.000000,0.000000,0.000000,0.000000,0.000000,0.000000,0.000000,0.000000,0.000000,0.000000,0.000000,0.000000,0.000000,0.000000,0.000000,0.000000,0.000000,0.000000,0.000000,0.000000,0.000139,12600,2810,0,6782,1,0,0,4851,-0.000432,-0.000148,-0.000139,0.002269,-0.001062,-0.000390,0,0,-1001,2,0,0,702,0,0.002652,-0.049571,0,0,51,0.005257,-0.047936,728.615906,741.973083,-6.772904,0.018374,-0.002865,0.008009,-0.911673,0.000626,-0.000326,-0.410915,-0.000178,0.000199,-0.000649,0.000000,0.000000,0.000000,0.000000,2,3,217,4,4,3
3.478000,4,0,0,-1,0,0.000000,0.000000,0.000000,0.000000,0.000000,0.000000,0.000000,0.000000,0.000000,0.000000,0.000000,0.000000,0.000000,0.000000,0.000000,0.000000,0.000000,0.000000,0.000000,0.000000,0.000000,0.000000,0.000000,0.000000,0.000000,0.000000,0.000000,0.000000,0.000000,0.000000,0.000000,0.000154,12600,2810,0,6782,1,0,0,4851,-0.000273,-0.000212,-0.000154,0.001322,-0.001123,-0.000686,0,0,-1001,1,0,0,702,0,-0.004196,0.035786,0,0,51,-0.004949,0.038547,728.615845,741.972839,-6.772676,0.018385,-0.002663,0.007979,-0.911673,0.000626,-0.000326,-0.410915,-0.000178,0.000199,-0.000649,0.000000,0.000000,0.000000,0.000000,2,3,217,4,4,3
3.536000,4,0,0,-1,0,0.000000,0.000000,0.000000,0.000000,0.000000,0.000000,0.000000,0.000000,0.000000,0.000000,0.000000,0.000000,0.000000,0.000000,0.000000,0.000000,0.000000,0.000000,0.000000,0.000000,0.000000,0.000000,0.000000,0.000000,0.000000,0.000000,0.000000,0.000000,0.000000,0.000000,0.000000,0.000179,12600,2810,0,6782,1,0,0,4851,-0.000310,-0.000212,-0.000179,-0.000947,0.000725,-0.000893,0,0,-1001,0,1,0,702,0,-0.004196,0.035786,0,0,51,-0.004949,0.038547,728.616211,741.972473,-6.772272,0.018655,-0.002259,0.007821,-0.911673,0.000626,-0.000326,-0.410915,-0.000178,0.000199,-0.000649,0.000000,0.000000,0.000000,0.000000,2,3,217,4,4,3
3.601000,4,0,0,-1,0,0.000000,0.000000,0.000000,0.000000,0.000000,0.000000,0.000000,0.000000,0.000000,0.000000,0.000000,0.000000,0.000000,0.000000,0.000000,0.000000,0.000000,0.000000,0.000000,0.000000,0.000000,0.000000,0.000000,0.000000,0.000000,0.000000,0.000000,0.000000,0.000000,0.000000,0.000000,0.000233,12600,2810,0,6781,1,0,0,4851,-0.000349,-0.000240,-0.000233,-0.000827,-0.001249,-0.001151,0,0,-1001,0,0,0,702,0,-0.010483,0.046265,0,0,51,-0.011088,0.046107,728.615845,741.972168,-6.771969,0.018560,-0.002047,0.007749,-0.911673,0.000626,-0.000326,-0.410915,-0.000178,0.000199,-0.000649,0.000000,0.000000,0.000000,0.000000,2,3,217,4,4,3
3.668000,4,0,0,-1,0,0.000000,0.000000,0.000000,0.000000,0.000000,0.000000,0.000000,0.000000,0.000000,0.000000,0.000000,0.000000,0.000000,0.000000,0.000000,0.000000,0.000000,0.000000,0.000000,0.000000,0.000000,0.000000,0.000000,0.000000,0.000000,0.000000,0.000000,0.000000,0.000000,0.000000,0.000000,0.000285,12600,2810,0,6781,1,0,0,4851,-0.000529,-0.000312,-0.000285,-0.003250,-0.000148,-0.000933,0,0,-1001,0,-1,0,702,0,-0.010483,0.046265,0,0,51,-0.011088,0.046107,728.615417,741.971863,-6.771650,0.018453,-0.001780,0.007269,-0.911673,0.000626,-0.000326,-0.410915,-0.000178,0.000199,-0.000649,0.000000,0.000000,0.000000,0.000000,2,3,217,4,4,3
3.734000,4,0,0,-1,0,0.000000,0.000000,0.000000,0.000000,0.000000,0.000000,0.000000,0.000000,0.000000,0.000000,0.000000,0.000000,0.000000,0.000000,0.000000,0.000000,0.000000,0.000000,0.000000,0.000000,0.000000,0.000000,0.000000,0.000000,0.000000,0.000000,0.000000,0.000000,0.000000,0.000000,0.000000,0.000299,12600,2810,0,6781,1,0,0,4850,-0.000530,-0.000316,-0.000299,-0.001093,-0.000310,-0.000552,0,0,-1001,0,0,0,702,0,0.037368,0.048842,0,0,51,0.037179,0.048876,728.615540,741.971558,-6.771268,0.018799,-0.001482,0.007066,-0.911673,0.000626,-0.000326,-0.410915,-0.000178,0.000199,-0.000649,0.000000,0.000000,0.000000,0.000000,2,3,217,4,4,3
3.803000,4,0,0,-1,0,0.000000,0.000000,0.000000,0.000000,0.000000,0.000000,0.000000,0.000000,0.000000,0.000000,0.000000,0.000000,0.000000,0.000000,0.000000,0.000000,0.000000,0.000000,0.000000,0.000000,0.000000,0.000000,0.000000,0.000000,0.000000,0.000000,0.000000,0.000000,0.000000,0.000000,0.000000,0.000291,12600,2810,0,6780,1,0,0,4851,-0.000570,-0.000385,-0.000291,-0.003308,-0.003629,-0.000111,0,0,-1001,-2,-2,0,702,0,0.049169,0.020371,0,0,51,0.050876,0.020395,728.614685,741.971191,-6.770924,0.018619,-0.001197,0.006600,-0.911673,0.000626,-0.000326,-0.410915,-0.000178,0.000199,-0.000649,0.000000,0.000000,0.000000,0.000000,2,3,217,4,4,3
3.871000,4,0,0,-1,0,0.000000,0.000000,0.000000,0.000000,0.000000,0.000000,0.000000,0.000000,0.000000,0.000000,0.000000,0.000000,0.000000,0.000000,0.000000,0.000000,0.000000,0.000000,0.000000,0.000000,0.000000,0.000000,0.000000,0.000000,0.000000,0.000000,0.000000,0.000000,0.000000,0.000000,0.000000,0.000268,12600,2810,0,6780,1,0,0,4851,-0.000692,-0.000560,-0.000268,-0.001230,-0.001766,-0.000107,0,0,-1000,0,-1,0,702,0,0.049169,0.020371,0,0,51,0.050876,0.020395,728.614136,741.971069,-6.770767,0.018590,-0.001070,0.006433,-0.911673,0.000626,-0.000326,-0.410915,-0.000178,0.000199,-0.000649,0.000000,0.000000,0.000000,0.000000,2,3,217,4,4,3
3.939000,4,0,0,-1,0,0.000000,0.000000,0.000000,0.000000,0.000000,0.000000,0.000000,0.000000,0.000000,0.000000,0.000000,0.000000,0.000000,0.000000,0.000000,0.000000,0.000000,0.000000,0.000000,0.000000,0.000000,0.000000,0.000000,0.000000,0.000000,0.000000,0.000000,0.000000,0.000000,0.000000,0.000000,0.000248,12600,2810,0,6780,1,0,0,4851,-0.000729,-0.000564,-0.000248,-0.000306,0.001181,-0.000083,0,0,-1002,0,0,0,702,0,0.039526,-0.029855,0,0,51,0.037761,-0.031260,728.614014,741.970825,-6.770463,0.019032,-0.000707,0.006263,-0.911673,0.000626,-0.000326,-0.410915,-0.000178,0.000199,-0.000649,0.000000,0.000000,0.000000,0.000000,2,3,217,4,4,3
4.005000,4,0,0,-1,0,0.000000,0.000000,0.000000,0.000000,0.000000,0.000000,0.000000,0.000000,0.000000,0.000000,0.000000,0.000000,0.000000,0.000000,0.000000,0.000000,0.000000,0.000000,0.000000,0.000000,0.000000,0.000000,0.000000,0.000000,0.000000,0.000000,0.000000,0.000000,0.000000,0.000000,0.000000,0.000245,12600,2810,0,6780,1,0,0,4851,-0.000819,-0.000611,-0.000245,-0.002867,-0.000509,-0.000331,0,0,-1001,-2,0,0,702,0,0.002806,-0.041256,0,0,51,0.000221,-0.041610,728.612915,741.970581,-6.770257,0.018982,-0.000465,0.005751,-0.911673,0.000626,-0.000326,-0.410915,-0.000178,0.000199,-0.000649,0.000000,0.000000,0.000000,0.000000,2,3,217,4,4,3
4.070000,4,0,0,-1,0,0.000000,0.000000,0.000000,0.000000,0.000000,0.000000,0.000000,0.000000,0.000000,0.000000,0.000000,0.000000,0.000000,0.000000,0.000000,0.000000,0.000000,0.000000,0.000000,0.000000,0.000000,0.000000,0.000000,0.000000,0.000000,0.000000,0.000000,0.000000,0.000000,0.000000,0.000000,0.000265,12600,2810,0,6780,1,0,0,4851,-0.000983,-0.000751,-0.000265,-0.002392,-0.000503,-0.000781,0,0,-1001,-1,0,0,702,0,0.002806,-0.041256,0,0,51,0.000221,-0.041610,728.612427,741.970459,-6.770124,0.019164,-0.000270,0.005652,-0.911673,0.000626,-0.000326,-0.410915,-0.000178,0.000199,-0.000649,0.000000,0.000000,0.000000,0.000000,2,3,217,4,4,3
4.137000,4,0,0,-1,0,0.000000,0.000000,0.000000,0.000000,0.000000,0.000000,0.000000,0.000000,0.000000,0.000000,0.000000,0.000000,0.000000,0.000000,0.000000,0.000000,0.000000,0.000000,0.000000,0.000000,0.000000,0.000000,0.000000,0.000000,0.000000,0.000000,0.000000,0.000000,0.000000,0.000000,0.000000,0.000285,12600,2810,0,6779,1,0,0,4851,-0.000987,-0.000760,-0.000285,-0.000875,0.000723,-0.000692,0,0,-1001,0,1,0,702,0,0.042661,0.044524,0,0,51,0.040552,0.045437,728.612244,741.970276,-6.769912,0.019841,0.000043,0.005328,-0.911673,0.000626,-0.000326,-0.410915,-0.000178,0.000199,-0.000649,0.000000,0.000000,0.000000,0.000000,2,3,217,4,4,3
4.205000,4,0,0,-1,0,0.000000,0.000000,0.000000,0.000000,0.000000,0.000000,0.000000,0.000000,0.000000,0.000000,0.000000,0.000000,0.000000,0.000000,0.000000,0.000000,0.000000,0.000000,0.000000,0.000000,0.000000,0.000000,0.000000,0.000000,0.000000,0.000000,0.000000,0.000000,0.000000,0.000000,0.000000,0.000302,12600,2810,0,6779,1,0,0,4850,-0.000997,-0.000711,-0.000302,-0.001797,0.000474,-0.000451,0,0,-1001,-1,1,0,702,0,0.024423,0.026284,0,0,51,0.026165,0.027145,728.611206,741.970154,-6.769845,0.019878,0.000199,0.005073,-0.911673,0.000626,-0.000326,-0.410915,-0.000178,0.000199,-0.000649,0.000000,0.000000,0.000000,0.000000,2,3,217,4,4,3
4.271000,4,0,0,-1,0,0.000000,0.000000,0.000000,0.000000,0.000000,0.000000,0.000000,0.000000,0.000000,0.000000,0.000000,0.000000,0.000000,0.000000,0.000000,0.000000,0.000000,0.000000,0.000000,0.000000,0.000000,0.000000,0.000000,0.000000,0.000000,0.000000,0.000000,0.000000,0.000000,0.000000,0.000000,0.000292,12600,2810,0,6779,2,0,0,4851,-0.001104,-0.000764,-0.000292,-0.001754,-0.001332,-0.000202,0,0,-1000,-1,0,0,702,0,0.024423,0.026284,0,0,51,0.026165,0.027145,728.610718,741.970093,-6.769720,0.020258,0.000393,0.004922,-0.911673,0.000626,-0.000326,-0.410915,-0.000178,0.000199,-0.000649,0.000000,0.000000,0.000000,0.000000,2,3,217,4,4,3
4.329000,4,0,0,-1,0,0.000000,0.000000,0.000000,0.000000,0.000000,0.000000,0.000000,0.000000,0.000000,0.000000,0.000000,0.000000,0.000000,0.000000,0.000000,0.000000,0.000000,0.000000,0.000000,0.000000,0.000000,0.000000,0.000000,0.000000,0.000000,0.000000,0.000000,0.000000,0.000000,0.000000,0.000000,0.000278,12600,2810,0,6779,2,0,0,4851,-0.001098,-0.000820,-0.000278,-0.001179,-0.001284,-0.000028,0,0,-1001,0,0,0,702,0,0.042522,0.002307,0,0,51,0.040688,0.001284,728.610596,741.970032,-6.769619,0.020674,0.000563,0.004943,-0.911673,0.000626,-0.000326,-0.410915,-0.000178,0.000199,-0.000649,0.000000,0.000000,0.000000,0.000000,2,3,217,4,4,3
4.395000,4,0,0,-1,0,0.000000,0.000000,0.000000,0.000000,0.000000,0.000000,0.000000,0.000000,0.000000,0.000000,0.000000,0.000000,0.000000,0.000000,0.000000,0.000000,0.000000,0.000000,0.000000,0.000000,0.000000,0.000000,0.000000,0.000000,0.000000,0.000000,0.000000,0.000000,0.000000,0.000000,0.000000,0.000235,12600,2810,0,6779,2,0,0,4851,-0.001099,-0.000824,-0.000235,-0.000865,-0.000284,0.000300,0,0,-1001,0,0,1,702,0,-0.041044,0.040198,0,0,51,-0.038044,0.040260,728.610046,741.969910,-6.769535,0.021128,0.000837,0.004787,-0.911673,0.000626,-0.000326,-0.410915,-0.000178,0.000199,-0.000649,0.000000,0.000000,0.000000,0.000000,2,3,217,4,4,3
4.462000,4,0,0,-1,0,0.000000,0.000000,0.000000,0.000000,0.000000,0.000000,0.000000,0.000000,0.000000,0.000000,0.000000,0.000000,0.000000,0.000000,0.000000,0.000000,0.000000,0.000000,0.000000,0.000000,0.000000,0.000000,0.000000,0.000000,0.000000,0.000000,0.000000,0.000000,0.000000,0.000000,0.000000,0.000180,12600,2810,0,6779,2,0,0,4851,-0.001064,-0.000872,-0.000180,0.001884,-0.002300,0.000259,0,0,-1001,-1,1,1,702,0,-0.041044,0.040198,0,0,51,-0.038044,0.040260,728.609436,741.969849,-6.769475,0.021501,0.001065,0.004409,-0.911673,0.000626,-0.000326,-0.410915,-0.000178,0.000199,-0.000649,0.000000,0.000000,0.000000,0.000000,2,3,217,4,4,3
4.530000,4,1,1,1,0,-181.500000,405.500000,121.000000,49.000000,0.404959,1021.000000,1070.000000,118.000000,239.000000,15.000000,15.000000,13.591097,29.854799,6.346818,1.249581,0.800802,0.061785,0.036363,0.001543,0.000908,15.000000,-2.750420,0.800802,1.133908,-0.436887,0.000000,0.000000,-0.000000,0.004004,0.000000,0.446050,0.446216,12600,2810,0,6779,2,0,0,4851,-0.000969,-0.000887,-0.000166,0.001643,-0.002217,-0.000153,0,0,-1001,2,-1,0,702,0,0.045987,-0.046372,0,0,51,0.047984,-0.047185,728.609375,741.969849,-6.769421,0.022142,0.001392,0.004159,-0.911673,0.000626,-0.000326,-0.410915,-0.000178,0.000199,-0.000649,0.000000,0.000000,0.000000,0.000000,2,3,217,4,4,3
4.601000,4,1,0,-1,0,-181.500000,405.500000,121.000000,49.000000,0.404959,1021.000000,1070.000000,118.000000,239.000000,15.000000,15.000000,13.591097,29.854799,6.346818,1.249581,0.800802,0.061785,0.036363,0.001543,0.000908,15.000000,-2.750420,0.800802,1.133908,-0.436887,0.000000,0.000000,0.000000,0.000000,0.000000,0.446050,0.446224,12600,2810,0,6779,2,0,0,4851,-0.000875,-0.000771,-0.000174,-0.000387,0.000520,-0.000553,0,0,-1001,0,1,0,702,0,-0.008781,-0.007333,0,0,51,-0.007152,-0.005411,728.608582,741.969788,-6.769458,0.022116,0.001647,0.004126,-0.911673,0.000626,-0.000326,-0.410915,-0.000178,0.000199,-0.000649,0.000000,0.000000,0.000000,0.000000,2,3,217,4,4,3
4.671000,4,1,1,0,0,-162.000000,389.500000,114.000000,41.000000,0.359649,1009.000000,1050.000000,141.000000,255.000000,15.000000,15.000000,13.591859,28.675100,6.345184,2.309257,1.601507,0.170040,0.103519,0.007054,0.004269,15.000000,-1.690743,1.601507,1.134028,-0.436767,0.000000,0.000000,0.000000,0.008008,0.000000,0.428450,0.428646,12600,2810,0,6779,2,0,0,4851,-0.001049,-0.000767,-0.000196,-0.003147,0.000892,-0.000717,0,0,-1000,-2,1,0,702,0,-0.008781,-0.007333,0,0,51,-0.007152,-0.005411,728.608337,741.969849,-6.769431,0.022482,0.001942,0.004098,-0.911673,0.000626,-0.000326,-0.410915,-0.000178,0.000199,-0.000649,0.000000,0.000000,0.000000,0.000000,2,3,217,4,4,3
4.738000,4,1,1,0,0,-157.500000,374.000000,115.000000,40.000000,0.347826,994.000000,1034.000000,145.000000,260.000000,15.000000,15.000000,13.591935,27.531200,6.345022,3.227362,2.397562,0.314231,0.196397,0.018159,0.011227,15.000000,-0.772638,2.397562,1.134040,-0.436755,0.000000,0.000000,0.000000,0.011988,0.000000,0.411400,0.411621,12600,2810,0,6779,2,0,0,4851,-0.001186,-0.000755,-0.000221,-0.002875,0.001474,-0.000821,0,0,-1000,-2,2,0,702,0,-0.017705,-0.029849,0,0,51,-0.020550,-0.027978,728.608459,741.969910,-6.769392,0.023131,0.002158,0.004175,-0.911673,0.000626,-0.000326,-0.410915,-0.000178,0.000199,-0.000649,0.000000,0.000000,0.000000,0.000000,2,3,217,4,4,3
4.809000,4,1,0,-1,0,-157.500000,374.000000,115.000000,40.000000,0.347826,994.000000,1034.000000,145.000000,260.000000,15.000000,15.000000,13.591935,27.531200,6.345022,3.227362,2.397562,0.314231,0.196397,0.018159,0.011227,15.000000,-0.772638,2.397562,1.134040,-0.436755,0.000000,0.000000,0.000000,0.000000,0.000000,0.411400,0.411660,12600,2810,0,6779,2,0,0,4851,-0.001306,-0.000681,-0.000260,-0.001533,-0.000196,-0.000800,0,0,-1001,0,0,0,702,0,0.027606,-0.008993,0,0,51,0.028165,-0.010216,728.607971,741.969910,-6.769391,0.023531,0.002196,0.004166,-0.911673,0.000626,-0.000326,-0.410915,-0.000178,0.000199,-0.000649,0.000000,0.000000,0.000000,0.000000,2,3,217,4,4,3
4.877000,4,1,0,-1,0,-157.500000,374.000000,115.000000,40.000000,0.347826,994.000000,1034.000000,145.000000,260.000000,15.000000,15.000000,13.591935,27.531200,6.345022,3.227362,2.397562,0.314231,0.196397,0.018159,0.011227,15.000000,-0.772638,2.397562,1.134040,-0.436755,0.000000,0.000000,0.000000,0.000000,0.000000,0.411400,0.411673,12600,2810,0,6779,2,0,0,4851,-0.001312,-0.000624,-0.000273,0.000886,0.000254,-0.000399,0,0,-1001,1,0,0,702,0,0.015063,-0.010943,0,0,51,0.014719,-0.010346,728.607666,741.969910,-6.769404,0.023743,0.002176,0.004027,-0.911673,0.000626,-0.000326,-0.410915,-0.000178,0.000199,-0.000649,0.000000,0.000000,0.000000,0.000000,2,3,217,4,4,3
4.945000,4,1,0,-1,0,-157.500000,374.000000,115.000000,40.000000,0.347826,994.000000,1034.000000,145.000000,260.000000,15.000000,15.000000,13.591935,27.531200,6.345022,3.227362,2.397562,0.314231,0.196397,0.018159,0.011227,15.000000,-0.772638,2.397562,1.134040,-0.436755,0.000000,0.000000,0.000000,0.000000,0.000000,0.411400,0.411670,12600,2810,0,6779,2,0,0,4851,-0.001319,-0.000542,-0.000270,0.000460,0.002037,-0.000338,0,0,-1000,1,2,0,702,0,0.015063,-0.010943,0,0,51,0.014719,-0.010346,728.607971,741.969971,-6.769375,0.024532,0.002182,0.004126,-0.911673,0.000626,-0.000326,-0.410915,-0.000178,0.000199,-0.000649,0.000000,0.000000,0.000000,0.000000,2,3,217,4,4,3
5.014000,4,1,0,-1,0,-157.500000,374.000000,115.000000,40.000000,0.347826,994.000000,1034.000000,145.000000,260.000000,15.000000,15.000000,13.591935,27.531200,6.345022,3.227362,2.397562,0.314231,0.196397,0.018159,0.011227,15.000000,-0.772638,2.397562,1.134040,-0.436755,0.000000,0.000000,0.000000,0.000000,0.000000,0.411400,0.411681,12600,2810,0,6779,2,0,0,4851,-0.001266,-0.000485,-0.000281,0.000371,-0.000462,-0.000605,0,0,-1001,0,0,0,702,0,-0.000294,0.002393,0,0,51,0.000320,0.002710,728.607544,741.969971,-6.769390,0.024826,0.002107,0.004203,-0.911673,0.000626,-0.000326,-0.410915,-0.000178,0.000199,-0.000649,0.000000,0.000000,0.000000,0.000000,2,3,217,4,4,3
5.082000,4,1,0,-1,0,-157.500000,374.000000,115.000000,40.000000,0.347826,994.000000,1034.000000,145.000000,260.000000,15.000000,15.000000,13.591935,27.531200,6.345022,3.227362,2.397562,0.314231,0.196397,0.018159,0.011227,15.000000,-0.772638,2.397562,1.134040,-0.436755,0.000000,0.000000,0.000000,0.000000,0.000000,0.411400,0.411704,12600,2810,0,6779,2,0,0,4850,-0.001237,-0.000476,-0.000304,0.000284,-0.001266,-0.000912,0,0,-1001,0,0,0,702,0,0.000209,-0.015512,0,0,51,0.000708,-0.017488,728.607544,741.969971,-6.769373,0.025202,0.002056,0.004090,-0.911673,0.000626,-0.000326,-0.410915,-0.000178,0.000199,-0.000649,0.000000,0.000000,0.000000,0.000000,2,3,217,4,4,3
5.142000,4,1,0,-1,0,-157.500000,374.000000,115.000000,40.000000,0.347826,994.000000,1034.000000,145.000000,260.000000,15.000000,15.000000,13.591935,27.531200,6.345022,3.227362,2.397562,0.314231,0.196397,0.018159,0.011227,15.000000,-0.772638,2.397562,1.134040,-0.436755,0.000000,0.000000,0.000000,0.000000,0.000000,0.411400,0.411745,12600,2810,0,6779,2,0,0,4850,-0.001137,-0.000360,-0.000345,0.002359,0.001312,-0.000830,0,0,-1001,2,1,0,702,0,0.000209,-0.015512,0,0,51,0.000708,-0.017488,728.607849,741.970032,-6.769361,0.025623,0.002047,0.004200,-0.911673,0.000626,-0.000326,-0.410915,-0.000178,0.000199,-0.000649,0.000000,0.000000,0.000000,0.000000,2,3,217,4,4,3
5.211000,4,1,0,-1,0,-157.500000,374.000000,115.000000,40.000000,0.347826,994.000000,1034.000000,145.000000,260.000000,15.000000,15.000000,13.591935,27.531200,6.345022,3.227362,2.397562,0.314231,0.196397,0.018159,0.011227,15.000000,-0.772638,2.397562,1.134040,-0.436755,0.000000,0.000000,0.000000,0.000000,0.000000,0.411400,0.411305,12600,2810,0,6779,2,0,0,4851,-0.000811,-0.000298,0.000095,0.003595,-0.000742,0.013417,0,0,-1001,3,1,4,702,0,-0.039308,0.013181,0,0,51,-0.035401,0.014757,728.607300,741.969971,-6.769436,0.025535,0.001921,0.003725,-0.911673,0.000626,-0.000326,-0.410915,-0.000178,0.000199,-0.000649,0.000000,0.000000,0.000000,0.000000,2,3,217,4,4,3
5.280000,4,1,0,-1,0,-157.500000,374.000000,115.000000,40.000000,0.347826,994.000000,1034.000000,145.000000,260.000000,15.000000,15.000000,13.591935,27.531200,6.345022,3.227362,2.397562,0.314231,0.196397,0.018159,0.011227,15.000000,-0.772638,2.397562,1.134040,-0.436755,0.000000,0.000000,0.000000,0.000000,0.000000,0.411400,0.409659,12600,2810,0,6779,2,0,0,4862,-0.000639,-0.000331,0.001741,0.003526,-0.001315,0.040507,0,0,-1001,4,0,41,702,0,0.048390,-0.036331,0,0,51,0.053558,-0.037582,728.607605,741.969971,-6.769412,0.025674,0.002018,0.003651,-0.911673,0.000626,-0.000326,-0.410915,-0.000178,0.000199,-0.000649,0.000000,0.000000,0.000000,0.000000,2,3,217,4,4,3
5.349000,4,1,1,1,0,-273.000000,389.000000,174.000000,68.000000,0.390805,995.000000,1063.000000,0.000000,174.000000,13.652530,15.000000,12.373468,19.675734,5.769648,3.944510,2.965990,0.466593,0.278512,0.033829,0.019366,13.652530,-0.055490,2.965990,1.134476,-0.436319,0.000000,0.000000,0.000000,0.014830,0.000000,0.427900,0.420933,12600,2810,0,6779,2,0,0,4892,-0.000111,-0.000319,0.006967,0.007361,0.000313,0.088505,0,0,-1001,7,0,89,701,0,0.048390,-0.036331,0,0,51,0.053558,-0.037582,728.607971,741.969971,-6.769428,0.025747,0.002200,0.003636,-0.911673,0.000626,-0.000326,-0.410915,-0.000178,0.000199,-0.000649,0.000000,0.000000,0.000000,0.000000,2,3,217,4,4,3
5.421000,4,0,1,1,0,-272.000000,384.000000,176.000000,68.000000,0.386364,990.000000,1058.000000,0.000000,176.000000,13.834547,15.000000,12.538208,20.381794,5.847054,4.600856,3.574691,0.642317,0.381406,0.056361,0.032012,13.834547,0.600856,3.574691,1.134437,-0.436358,0.000000,0.000000,1.133081,0.156755,0.000000,0.422400,0.405442,12600,2810,0,6779,2,0,0,4949,0.000562,-0.000358,0.016958,0.007459,-0.001782,0.160223,0,0,-1000,8,-1,161,701,0,0.003455,0.040969,0,0,51,0.013977,0.040636,728.607483,741.969666,-6.769527,0.024951,0.002600,0.003477,-0.911673,0.000626,-0.000326,-0.410915,-0.000178,0.000199,-0.000649,0.000000,0.000000,0.000000,0.000000,2,3,217,4,4,3
5.490000,4,0,1,1,0,-111.000000,258.000000,120.000000,58.000000,0.483333,869.000000,927.000000,189.000000,309.000000,15.000000,15.000000,13.594145,18.988800,6.340285,5.274952,4.147844,0.859758,0.490494,0.089628,0.047892,15.000000,1.274952,4.147844,1.134388,-0.436407,0.000000,0.000000,1.606212,0.132662,0.000000,0.283800,0.251186,12600,2810,0,6779,2,0,0,5006,0.000997,-0.000407,0.032614,0.004409,-0.000351,0.231803,0,0,-1001,5,0,212,701,0,0.034944,-0.001113,0,0,51,0.039804,-0.001296,728.607666,741.969604,-6.769518,0.024414,0.003279,0.003597,-0.911673,0.000626,-0.000326,-0.410915,-0.000178,0.000199,-0.000649,0.000000,0.000000,0.000000,0.000000,2,3,217,4,4,3
5.559000,4,0,0,-1,0,-111.000000,258.000000,120.000000,58.000000,0.483333,869.000000,927.000000,189.000000,309.000000,15.000000,15.000000,13.594145,18.988800,6.340285,5.274952,4.147844,0.859758,0.490494,0.089628,0.047892,15.000000,1.274952,4.147844,1.134388,-0.436407,0.000000,0.000000,0.000000,0.000000,0.000000,0.283800,0.238587,12600,2810,0,6779,2,0,0,5111,0.001181,-0.000384,0.045213,0.003002,0.001048,0.257737,0,0,-1001,3,1,258,701,0,0.034944,-0.001113,0,0,51,0.039804,-0.001296,728.607727,741.969482,-6.769374,0.023546,0.004136,0.003589,-0.911673,0.000626,-0.000326,-0.410915,-0.000178,0.000199,-0.000649,0.000000,0.000000,0.000000,0.000000,2,3,217,4,4,3
5.629000,4,0,0,-1,0,-111.000000,258.000000,120.000000,58.000000,0.483333,869.000000,927.000000,189.000000,309.000000,15.000000,15.000000,13.594145,18.988800,6.340285,5.274952,4.147844,0.859758,0.490494,0.089628,0.047892,15.000000,1.274952,4.147844,1.134388,-0.436407,0.000000,0.000000,0.000000,0.000000,0.000000,0.283800,0.218903,12600,2810,0,6779,2,0,0,5224,0.001140,-0.000450,0.064897,-0.001151,-0.001167,0.259960,0,0,-1001,0,0,260,701,0,-0.019924,-0.003991,0,0,51,-0.020770,-0.005254,728.607544,741.969421,-6.769189,0.022714,0.004747,0.003779,-0.911673,0.000626,-0.000326,-0.410915,-0.000178,0.000199,-0.000649,0.000000,0.000000,0.000000,0.000000,2,3,217,4,4,3
5.699000,4,0,0,-1,0,-111.000000,258.000000,120.000000,58.000000,0.483333,869.000000,927.000000,189.000000,309.000000,15.000000,15.000000,13.594145,18.988800,6.340285,5.274952,4.147844,0.859758,0.490494,0.089628,0.047892,15.000000,1.274952,4.147844,1.134388,-0.436407,0.000000,0.000000,0.000000,0.000000,0.000000,0.283800,0.200800,12600,2810,0,6778,2,0,0,5328,0.000877,-0.000565,0.083000,-0.004352,-0.000664,0.227666,0,0,-1001,-3,0,228,701,0,0.045470,-0.010331,0,0,51,0.042177,-0.012287,728.607361,741.969360,-6.768937,0.021842,0.005639,0.003809,-0.911673,0.000626,-0.000326,-0.410915,-0.000178,0.000199,-0.000649,0.000000,0.000000,0.000000,0.000000,2,3,217,4,4,3
5.769000,4,0,1,2,0,-137.500000,240.500000,117.000000,33.000000,0.282051,864.000000,897.000000,164.000000,281.000000,15.000000,15.000000,13.593386,17.700800,6.341915,5.897616,4.683464,1.092198,0.602485,0.130624,0.066598,15.000000,1.897616,4.683464,1.134269,-0.436527,0.000000,0.000000,1.834319,0.148101,0.000000,0.264550,0.166749,12600,2810,0,6778,2,0,0,5413,0.000728,-0.000527,0.097801,-0.002467,0.000369,0.175791,0,0,-1001,0,1,195,701,0,0.045470,-0.010331,0,0,51,0.042177,-0.012287,728.607239,741.969360,-6.768586,0.021174,0.006505,0.003872,-0.911673,0.000626,-0.000326,-0.410915,-0.000178,0.000199,-0.000649,0.000000,0.000000,0.000000,0.000000,2,3,217,4,4,3
5.839000,4,0,1,0,0,-144.000000,239.500000,116.000000,43.000000,0.370690,858.000000,901.000000,158.000000,274.000000,15.000000,15.000000,13.593182,17.627199,6.342352,6.479386,5.224173,1.336462,0.724857,0.179080,0.089545,15.000000,2.479386,5.224173,1.134236,-0.436559,0.000000,0.000000,2.073273,0.164438,0.000000,0.263450,0.155230,12600,2810,0,6778,2,0,0,5455,0.000531,-0.000559,0.108220,-0.002261,-0.000066,0.118786,0,0,-1001,-3,0,138,701,0,0.022116,-0.004473,0,0,51,0.021245,-0.004581,728.606628,741.969299,-6.768157,0.020313,0.007249,0.003844,-0.911673,0.000626,-0.000326,-0.410915,-0.000178,0.000199,-0.000649,0.000000,0.000000,0.000000,0.000000,2,3,217,4,4,3
5.907000,4,0,1,1,0,-142.500000,232.500000,121.000000,59.000000,0.487603,843.000000,902.000000,157.000000,278.000000,15.000000,15.000000,13.593409,17.112001,6.341864,7.028220,5.749476,1.589683,0.851840,0.234479,0.115747,15.000000,3.028220,5.749476,1.134272,-0.436523,0.000000,0.000000,2.319225,0.180138,0.000000,0.255750,0.142909,12600,2810,0,6777,2,0,0,5499,0.000434,-0.000523,0.112841,-0.002269,0.000526,0.082444,0,0,-1001,-1,1,83,701,0,0.049667,0.047336,0,0,51,0.047381,0.048219,728.606750,741.969421,-6.767822,0.020061,0.007880,0.003730,-0.911673,0.000626,-0.000326,-0.410915,-0.000178,0.000199,-0.000649,0.000000,0.000000,0.000000,0.000000,2,3,217,4,4,3
5.967000,4,0,1,1,0,-141.000000,228.000000,120.000000,66.000000,0.550000,835.000000,901.000000,159.000000,279.000000,15.000000,15.000000,13.593599,16.780800,6.341454,7.550067,6.264108,1.849159,0.983551,0.296081,0.145206,15.000000,3.550067,6.264108,1.134302,-0.436493,0.000000,0.000000,2.641137,0.196394,0.000000,0.250800,0.134086,12600,2810,0,6777,1,0,0,5521,0.000396,-0.000493,0.116714,0.001483,0.000576,0.035927,0,0,-1001,-2,0,51,701,0,0.049667,0.047336,0,0,51,0.047381,0.048219,728.606506,741.969482,-6.767561,0.019706,0.008248,0.003598,-0.911673,0.000626,-0.000326,-0.410915,-0.000178,0.000199,-0.000649,0.000000,0.000000,0.000000,0.000000,2,3,217,4,4,3
6.036000,4,0,1,0,0,-144.500000,228.000000,115.000000,68.000000,0.591304,834.000000,902.000000,158.000000,273.000000,15.000000,15.000000,13.593797,16.780800,6.341033,8.049348,6.780245,2.112277,1.122584,0.362948,0.178529,15.000000,4.049348,6.780245,1.134333,-0.436462,0.000000,0.000000,2.754919,0.210860,0.000000,0.250800,0.133008,12600,2810,0,6777,1,0,0,5527,0.000437,-0.000462,0.117792,0.000321,-0.000494,0.017405,0,0,-1001,0,0,18,701,0,-0.008466,0.013540,0,0,51,-0.005830,0.015295,728.606018,741.969543,-6.767167,0.019140,0.008756,0.003331,-0.911673,0.000626,-0.000326,-0.410915,-0.000178,0.000199,-0.000649,0.000000,0.000000,0.000000,0.000000,2,3,217,4,4,3
6.102000,4,0,1,1,0,-141.500000,229.000000,121.000000,72.000000,0.595041,833.000000,905.000000,158.000000,279.000000,15.000000,14.210005,12.832896,13.553958,6.102540,8.476940,7.146964,2.342033,1.223724,0.424028,0.203485,14.210005,4.476940,7.146964,1.126907,-0.443888,0.000000,0.000000,2.896133,0.219951,0.000000,0.251900,0.132162,12600,2810,0,6776,1,1,0,5538,0.001470,-0.007888,0.119738,0.022735,-0.171751,0.036850,0,0,-1001,23,-171,37,701,0,0.005147,0.039628,0,0,51,0.021512,-0.085646,728.605835,741.969788,-6.766834,0.019642,0.011018,0.003068,-0.911673,0.000626,-0.000326,-0.410915,-0.000178,0.000199,-0.000649,0.000000,0.000000,0.000000,0.000000,2,3,217,4,4,3
6.168000,4,0,1,1,0,-144.500000,230.000000,113.000000,62.000000,0.548673,839.000000,901.000000,159.000000,272.000000,15.000000,15.000000,13.390956,16.927999,6.758868,8.927608,7.672744,2.596973,1.378499,0.495714,0.245007,15.000000,4.927608,7.672744,1.103368,-0.467427,0.000000,0.000000,3.158220,0.238122,0.000000,0.253000,0.127499,12600,2810,0,6776,2,2,0,5571,0.003815,-0.031427,0.125501,0.035333,-0.385139,0.102027,0,0,-1001,35,-384,102,702,0,0.005147,0.039628,0,0,51,0.021512,-0.085646,728.605713,741.970093,-6.766613,0.022519,0.017641,0.002993,-0.911673,0.000626,-0.000326,-0.410915,-0.000178,0.000199,-0.000649,0.000000,0.000000,0.000000,0.000000,2,3,217,4,4,3
6.236000,4,0,0,-1,0,-144.500000,230.000000,113.000000,62.000000,0.548673,839.000000,901.000000,159.000000,272.000000,15.000000,15.000000,13.390956,16.927999,6.758868,8.927608,7.672744,2.596973,1.378499,0.495714,0.245007,15.000000,4.927608,7.672744,1.103368,-0.467427,0.000000,0.000000,0.000000,0.000000,0.000000,0.253000,0.116691,12600,2810,0,6776,3,4,0,5610,0.005952,-0.067784,0.136309,0.033606,-0.529111,0.166542,0,0,-1002,34,-488,148,702,0,0.006935,-0.047018,0,0,51,0.044019,-0.454397,728.606018,741.971802,-6.766281,0.036401,0.044864,0.002973,-0.911673,0.000626,-0.000326,-0.410915,-0.000178,0.000199,-0.000649,0.000000,0.000000,0.000000,0.000000,2,3,217,4,4,3
